index,country,city,latitude,longitude,altitude
5613,Jordan,Al Karamah,31.9522222,35.5791664,-279
5601,Jordan,Kurayyimah,32.2791667,35.5977783,-209
5629,Jordan,Waqqas,32.55,35.5999985,-134
5233,Israel,Tiberias,32.7955556,35.5286102,-39
5669,Kazakhstan,Atyrau,47.1166667,51.8833351,-25
853,Azerbaijan,Astara,38.4561111,48.8786125,-24
5726,Kazakhstan,Maqat,47.65,53.3166656,-22
5738,Kazakhstan,Quryq,43.2,51.6500015,-22
870,Azerbaijan,Zira,40.3636111,50.2902794,-21
872,Azerbaijan,Turkan,40.3638889,50.2150002,-20
824,Azerbaijan,Hovsan,40.3744444,50.0852776,-18
5713,Kazakhstan,Balyqshy,47.0666667,51.8666649,-17
5003,Iran,Bandar-e Anzali,37.4711111,49.4622231,-16
832,Azerbaijan,Sabirabad,40.0127778,48.4788895,-15
858,Azerbaijan,Qobustan,40.0841667,49.4158325,-15
901,Azerbaijan,Mugan,40.0986111,48.8188896,-12
834,Azerbaijan,Buzovna,40.5161111,50.1163902,-11
900,Azerbaijan,Kijoba,38.5327778,48.8166656,-11
841,Azerbaijan,Haci Zeynalabdin,40.6233333,49.5586128,-10
8340,Russia,Makhachkala,42.9752778,47.502224,-10
894,Azerbaijan,Boradigah,38.9277778,48.7086105,-9
903,Azerbaijan,Hasanabad,39.3213889,49.2091675,-8
844,Azerbaijan,Neftcala,39.3586111,49.2469444,-7
887,Azerbaijan,Banka,39.42,49.2475014,-7
904,Azerbaijan,Qaracala,39.8077778,48.9338875,-7
906,Azerbaijan,Xilli,39.4266667,49.1063881,-7
3161,Netherlands,Hoofddorp,52.3025,4.688889,-5
3176,Netherlands,Amstelveen,52.300833,4.8638892,-5
3239,Netherlands,Mijdrecht,52.206667,4.8625002,-5
5723,Kazakhstan,Beyneu,45.3166667,55.2000008,-5
823,Azerbaijan,Salyan,39.595,48.9791679,-4
852,Azerbaijan,Mardakan,40.4922222,50.1388893,-4
3146,Netherlands,Rotterdam,51.9225,4.479167,-4
3165,Netherlands,Zoetermeer,52.0575,4.4930558,-4
3186,Netherlands,Lelystad,52.508333,5.4749999,-4
837,Azerbaijan,Qazimammad,40.0433333,48.9355545,-3
857,Azerbaijan,Artyom,40.4708333,50.3216667,-3
3152,Netherlands,Almere Stad,52.3702542,5.2141285,-3
3192,Netherlands,Capelle-West,51.9166667,4.5666666,-3
3211,Netherlands,Emmeloord,52.710833,5.748611,-3
3228,Netherlands,Dronten,52.525,5.7180562,-3
3145,Netherlands,Amsterdam,52.373084,4.8999023,-2
3158,Netherlands,Zaanstad,52.45,4.8333335,-2
3169,Netherlands,Delft,52.006667,4.355556,-2
3170,Netherlands,Alkmaar,52.631667,4.748611,-2
3174,Netherlands,Amsterdam-Zuidoost,52.3075,4.9722219,-2
3178,Netherlands,Purmerend,52.505,4.959722,-2
3181,Netherlands,Spijkenisse,51.845,4.3291669,-2
3184,Netherlands,Gouda,52.016667,4.708333,-2
3187,Netherlands,Alphen aan den Rijn,52.1291677,4.6554565,-2
3208,Netherlands,Heerhugowaard,52.6666667,4.8499999,-2
879,Azerbaijan,Corat,40.5725,49.7063904,-1
3163,Netherlands,Leiden,52.158333,4.4930558,-1
3180,Netherlands,Schiedam,51.919167,4.3888888,-1
3185,Netherlands,Zaandam,52.44,4.8249998,-1
3188,Netherlands,Hoorn,52.6425,5.0597219,-1
3212,Netherlands,Zwijndrecht,51.8175,4.6333332,-1
3227,Netherlands,Barendrecht,51.856667,4.5347219,-1
3242,Netherlands,Sneek,53.0333333,5.6666665,-1
5035,Iran,Langerud,37.1952778,50.1491661,-1
288,United States,Phoenix,33.4483771,-112.0740356,0
316,United States,New Orleans,29.9546482,-90.0750732,0
326,United States,Oakland,37.8043722,-122.2708054,0
329,United States,Omaha,41.2586096,-95.9377899,0
331,United States,Honolulu,21.3069444,-157.8583374,0
354,United States,Anchorage,61.2180556,-149.9002838,0
370,United States,Baton Rouge,30.4507462,-91.1545486,0
8956,Korea,Nonsan,36.2038889,127.0847244,1
3812,Gambia,Barra,13.4827778,-16.5455551,1
3826,Gambia,Saba,13.5163889,-16.0491676,1
3822,Gambia,Kuntaur,13.6666667,-14.8833332,1
3846,Gambia,Wassu,13.6833333,-14.8833332,1
185,Algeria,Algiers,36.7630556,3.0505557,1
190,Algeria,Annaba,36.9,7.7666669,1
193,Algeria,Bejaia,36.75,5.0833335,1
268,Algeria,Beni Saf,35.3036111,-1.3808333,1
269,Algeria,Boudouaou,36.7305556,3.4102778,1
317,United States,Long Beach,33.7669623,-118.1892319,1
339,United States,Tampa,27.9475216,-82.4584274,1
399,Angola,Cabinda,-5.55,12.1999998,1
608,Australia,Sydney,-33.86785,151.2073212,1
613,Australia,Gold Coast,-28,153.4333344,1
614,Australia,Newcastle,-32.9271484,151.776474,1
618,Australia,Cairns,-16.9166667,145.7666626,1
620,Australia,Townsville,-19.25,146.8000031,1
622,Australia,Nowra,-34.8833333,150.6000061,1
628,Australia,Mandurah,-32.55,115.6999969,1
641,Australia,Cranbourne,-38.1,145.2833405,1
642,Australia,Caloundra,-26.8,153.1333313,1
650,Australia,Gladstone,-23.85,151.25,1
652,Australia,Warrnambool,-38.3833333,142.4833374,1
656,Australia,Bunbury,-33.3333333,115.6333313,1
665,Australia,Mornington,-38.2166667,145.0333405,1
668,Australia,Burnie,-41.0666667,145.9166718,1
671,Australia,Whyalla,-33.0333333,137.5833282,1
673,Australia,Devonport,-41.1666667,146.3500061,1
677,Australia,Surfers Paradise,-28.0027378,153.4299927,1
683,Australia,Karratha,-20.7291441,116.8547058,1
695,Australia,Ballina,-28.8666667,153.5666656,1
699,Australia,Cleveland,-27.5333333,153.2666626,1
700,Australia,Bongaree,-27.0797222,153.1586151,1
873,Azerbaijan,Masalli,39.0341667,48.665554,1
912,Bahrain,Jidd Hafs,26.2186111,50.5477791,1
941,Bangladesh,Bhola,22.6833333,90.6500015,1
976,Bangladesh,Lalmohan,22.3166667,90.7166672,1
991,Bangladesh,Sarankhola,22.3,89.7833328,1
1001,Bangladesh,Morrelganj,22.4666667,89.8499985,1
1008,Barbados,Bridgetown,13.1,-59.6166649,1
1009,Barbados,Speightstown,13.25,-59.6500015,1
1012,Barbados,Holetown,13.1833333,-59.6500015,1
1212,Belize,Dangriga,16.9666667,-88.2166672,1
1467,Brazil,Salvador,-12.9711111,-38.5108337,1
1468,Brazil,Fortaleza,-3.7172222,-38.5430565,1
1473,Brazil,Recife,-8.0538889,-34.8811111,1
1474,Brazil,Belem,-1.4558333,-48.5044441,1
1475,Brazil,Porto Alegre,-30.0330556,-51.2299995,1
1480,Brazil,Maceio,-9.6658333,-35.7352791,1
1481,Brazil,Sao Luis,-2.5297222,-44.3027763,1
1510,Brazil,Vila Velha,-20.3297222,-40.2924995,1
1513,Brazil,Campos,-21.75,-41.2999992,1
1522,Brazil,Macapa,0.0388889,-51.0663872,1
1528,Brazil,Sao Vicente,-23.9630556,-46.3919449,1
1534,Brazil,Guaruja,-23.9930556,-46.2563896,1
1576,United Kingdom,Kingston upon Hull,53.7445995,-0.3352547,1
1589,United Kingdom,Portsmouth,50.8090806,-1.0714245,1
1598,United Kingdom,Swansea,51.6207877,-3.9432335,1
1599,United Kingdom,Bournemouth,50.7166667,-1.8833333,1
1600,United Kingdom,Southend-on-Sea,51.5378207,0.7143259,1
1604,United Kingdom,Poole,50.7166667,-2,1
1608,United Kingdom,Blackpool,53.8166667,-3.05,1
1620,United Kingdom,Newport,51.5877364,-2.9983504,1
1622,United Kingdom,Eastbourne,50.7687108,0.2845287,1
1641,United Kingdom,Southport,53.6666667,-3,1
1648,United Kingdom,Hartlepool,54.6861111,-1.2125,1
1653,United Kingdom,South Shields,54.9877778,-1.4213889,1
1665,Brunei,Bandar Seri Begawan,4.8833333,114.9333344,1
1666,Brunei,Kuala Belait,4.5833333,114.1833344,1
1667,Brunei,Seria,4.6166667,114.3166656,1
1668,Brunei,Tutong,4.8,114.6500015,1
1697,Bulgaria,Silistra,44.1166667,27.2666664,1
1701,Bulgaria,Svishtov,43.6230556,25.3538895,1
1776,Myanmar,Akyab,20.15,92.9000015,1
1838,Cambodia,Ta Khmau,11.4833333,104.9499969,1
1841,Cambodia,Krong Kaoh Kong,11.6175,102.9805527,1
1851,Cameroon,Douala,4.0502778,9.6999998,1
1902,Cameroon,Bamusso,4.4333333,8.8999996,1
1909,Cameroon,Dizangue,3.7666667,9.9833336,1
1931,Cameroon,Bonaberi,4.0844444,9.666111,1
1963,Canada,Victoria,48.4329357,-123.3693008,1
2042,Canada,Glace Bay,46.19695,-59.9569817,1
2061,Cape Verde,Sal Rei,16.1833333,-22.916666,1
2063,Cape Verde,Porto dos Mosteiros,15.0333333,-24.333334,1
2145,Chile,Talcahuano,-36.7166667,-73.1166687,1
2198,Chile,Ancud,-41.8697222,-73.8202744,1
2322,China,Dandong,40.1291667,124.394722,1
2334,China,Zhangzhou,24.5133333,117.6555557,1
2362,Colombi,Buenaventura,3.8933333,-77.069725,1
2383,Colombi,Tumaco,1.7986111,-78.8155594,1
2441,Comoros,Domoni,-12.2569444,44.5319443,1
2467,Comoros,Djoyezi,-12.2975,43.7733345,1
2480,Comoros,Bimbini,-12.1883333,44.2355537,1
2524,Comoros,Milembeni,-12.1980556,44.2638893,1
2525,Comoros,Mirongani,-12.1905556,44.2524986,1
2528,Comoros,Chomoni,-11.6430556,43.3858337,1
2544,Costa Rica,Puntarenas,9.9762473,-84.838356,1
2682,Croatia,Opatija,45.3391667,14.3083334,1
2696,Croatia,Stobrec,43.5025,16.5222225,1
2725,Croatia,Preko,44.0811111,15.1875,1
2773,Cuba,Baracoa,20.3466667,-74.4958344,1
2797,Cuba,Gibara,21.1097222,-76.1316681,1
2838,Cyprus,Limassol,34.675,33.0333328,1
2840,Cyprus,Famagusta,35.125,33.9500008,1
2843,Cyprus,Protaras,35.0125,34.0583344,1
2928,Cyprus,Akrotiri,34.6041667,32.9583321,1
3035,Denmark,Arhus,56.1567366,10.210762,1
3037,Denmark,Aalborg,57.047999,9.9187012,1
3045,Denmark,Greve,55.5833333,12.3000002,1
3051,Denmark,Charlottenlund,55.75,12.583333,1
3054,Denmark,Helsingor,56.0360649,12.6136026,1
3066,Denmark,Holbaek,55.7166667,11.7166672,1
3067,Denmark,Frederikshavn,57.4407347,10.5366077,1
3077,Denmark,Aabenraa,55.0443427,9.417407,1
3082,Denmark,Solrod Strand,55.5328507,12.2222691,1
3096,Denmark,Espergaerde,56,12.5666666,1
3107,Denmark,Skagen,57.7209333,10.5839376,1
3109,Denmark,Nykobing Mors,56.7933405,8.8528242,1
3114,Denmark,Humlebaek,55.9618012,12.5341024,1
3119,Denmark,Saeby,57.3333333,10.5333328,1
3121,Denmark,Niva,55.9333333,12.5166664,1
3134,Djibouti,Djibouti,11.595,43.148056,1
3143,Djibouti,Loyada,11.4611111,43.2527771,1
3147,Netherlands,The Hague,52.076667,4.2986112,1
3148,Netherlands,Utrecht,52.090833,5.1222219,1
3151,Netherlands,Groningen,53.219167,6.5666671,1
3156,Netherlands,Haarlem,52.3808387,4.6368313,1
3164,Netherlands,Dordrecht,51.81,4.6736112,1
3166,Netherlands,Zwolle,52.5125,6.0944438,1
3173,Netherlands,Leeuwarden,53.2,5.7833333,1
3182,Netherlands,Vlaardingen,51.9125,4.3416672,1
3189,Netherlands,Velsen-Zuid,52.46,4.6500001,1
3194,Netherlands,Nieuwegein,52.029167,5.0805559,1
3204,Netherlands,Kampen,52.555,5.9111109,1
3206,Netherlands,Woerden,52.085,4.8833332,1
3209,Netherlands,Rijswijk,52.0363367,4.3250084,1
3210,Netherlands,Middelburg,51.5,3.613889,1
3215,Netherlands,Ridderkerk,51.8725,4.602778,1
3220,Netherlands,Heerenveen,52.95929,5.918541,1
3224,Netherlands,Maarssen,52.139167,5.041667,1
3230,Netherlands,Beverwijk,52.483333,4.6569438,1
3231,Netherlands,Goes,51.504167,3.8888891,1
3234,Netherlands,Heemskerk,52.5166667,4.6666665,1
3236,Netherlands,Castricum,52.548333,4.6694441,1
3237,Netherlands,Gorinchem,51.8325,4.9749999,1
3240,Netherlands,IJsselstein,52.02,5.043056,1
3243,Netherlands,Maassluis,51.923333,4.25,1
3251,Ecuador,Duran,-2.2,-79.8333359,1
3265,Ecuador,Salinas,-2.2166667,-80.9666672,1
3291,Ecuador,San Lorenzo de Esmeraldas,1.2883333,-78.8369446,1
3309,Ecuador,Muisne,0.6,-80.0333328,1
3455,Estonia,Orissaare,58.5591651,23.0826187,1
3584,Finland,Kotka,60.4666667,26.916666,1
3615,Finland,Hamina,60.5666667,27.2000008,1
3646,Finland,Naantali,60.45,22.0333328,1
3661,Finland,Mariehamn,60.1,19.9500008,1
3726,France,Antibes,43.5833333,7.1166668,1
3735,France,Saint-Nazaire,47.2833333,-2.2,1
3772,Gabon,Port-Gentil,-0.7166667,8.7833328,1
3792,Gabon,Mayumba,-3.4166667,10.6499996,1
3796,Gabon,Omboue,-1.5666667,9.25,1
4010,Germany,Rostock,54.0886975,12.1404934,1
4196,Greece,Mytilini,39.11,26.5547218,1
4206,Greece,Chios,38.3677778,26.1358337,1
4218,Greece,Kos,36.8933333,27.2888889,1
4240,Grenada,Grenville,12.1166667,-61.6166649,1
4243,Grenada,Hillsborough,12.4833333,-61.4666672,1
4344,Guyana,Georgetown,6.8,-58.1666679,1
4346,Guyana,New Amsterdam,6.25,-57.5166664,1
4347,Guyana,Bartica,6.4,-58.6166649,1
4349,Guyana,Rosignol,6.2833333,-57.5333328,1
4350,Guyana,Mahaica Village,6.6833333,-57.9166679,1
4351,Guyana,Vreed en Hoop,6.8075,-58.1869431,1
4352,Guyana,Fort Wellington,6.4,-57.5999985,1
4353,Guyana,Mahaicony Village,6.55,-57.7999992,1
4359,Haiti,Cap-Haitien,19.7577778,-72.2041702,1
4363,Haiti,Les Cayes,18.2,-73.75,1
4376,Haiti,Fort Liberte,19.6677778,-71.8397217,1
4424,Haiti,Phaeton,19.6741667,-71.8972244,1
4446,Haiti,Cayes Jacmel,18.2302778,-72.3961105,1
4520,Honduras,Puerto Lempira,15.2666667,-83.7666702,1
4673,Iceland,Neskaupstadur,65.15,-13.6999998,1
4697,Iceland,Hnifsdalur,66.1166667,-23.1333332,1
4708,Iceland,Raufarhofn,66.45,-15.9499998,1
4713,Iceland,Hofsos,65.9,-19.4333324,1
4714,Iceland,Breiddalsvik,64.8,-14,1
4730,Kiribati,Tarawa,-0.869217,169.5406342,1
4731,Kiribati,Taburao,1.8166667,173.0166626,1
4734,Kiribati,Utiroa,-1.2166667,174.75,1
4735,Kiribati,Tabukiniberu,-1.3419259,175.9894714,1
4736,Kiribati,Rawannawi,2.05,173.2666626,1
4792,India,Thiruvananthapuram,8.4833333,76.9166641,1
4826,India,Calicut,11.25,75.7666702,1
4840,India,Quilon,8.8833333,76.5999985,1
4844,Indonesia,Surabaya,-7.2491667,112.7508316,1
4860,Indonesia,Banjarmasin,-3.3333333,114.5833359,1
4863,Indonesia,Pontianak,-0.0333333,109.3333359,1
4865,Indonesia,Balikpapan,-1.26753,116.8288727,1
4869,Indonesia,Samarinda,-0.5,117.1500015,1
4879,Indonesia,Cirebon,-6.7333333,108.5666656,1
4886,Indonesia,Loa Janan,-0.582952,117.0950317,1
4908,Indonesia,Pasuruan,-7.6333333,112.9000015,1
4919,Indonesia,Dumai,1.6833333,101.4499969,1
4921,Indonesia,Sidoarjo,-7.4538889,112.7202759,1
4939,Indonesia,Tanjungpinang,0.9166667,104.4499969,1
4979,Iran,Babol,36.5441667,52.6788902,1
5016,Iran,Behshahr,36.6944444,53.5424995,1
5108,Ireland,Dun Laoghaire,53.2939516,-6.1358643,1
5113,Ireland,Drogheda,53.7188889,-6.3477778,1
5136,Ireland,Greystones,53.1408333,-6.0630555,1
5149,Ireland,Sionainn,52.7038889,-8.8641663,1
5150,Ireland,Portmarnock,53.4230556,-6.1374998,1
5153,Ireland,Dungarvan,52.0880556,-7.625278,1
5155,Ireland,An Ros,53.5222986,-6.0930777,1
5157,Ireland,Eochaill,51.95,-7.8505554,1
5193,Ireland,Donabate,53.4872222,-6.1519446,1
5195,Ireland,Cionn tSaile,51.7075,-8.5305557,1
5315,Italy,Venice,45.4386111,12.3266668,1
5361,Italy,Pisa,43.7175199,10.3964996,1
5388,Italy,Trapani,38.015843,12.510767,1
5405,Jamaica,Portmore,17.9702424,-76.867218,1
5426,Jamaica,Lucea,18.45,-78.1666641,1
5464,Jamaica,Discovery Bay,18.4666667,-77.4000015,1
5467,Jamaica,Manchioneal,18.0333333,-76.2833328,1
5484,Japan,Yokohama,35.45,139.6499939,1
5507,Japan,Niigata,37.9166667,139.0500031,1
5510,Japan,Nishinomiya,34.7166667,135.3333282,1
5573,Japan,Sasebo,33.1591667,129.7227783,1
5750,Kenya,Mombasa,-4.05,39.6666679,1
5756,Kenya,Malindi,-3.2166667,40.1166649,1
5781,Kenya,Lamu,-2.2783333,40.9033318,1
5837,Kenya,Kipini,-2.5227778,40.538887,1
5865,Kuwait,Al Funaytis,29.2252778,48.1016655,1
5951,Latvia,Ragaciems,57.0244444,23.4944439,1
5957,Latvia,Berzciems,57.2463889,23.1736107,1
5959,Latvia,Kesterciems,57.1147222,23.2311115,1
5960,Latvia,Apsuciems,57.0616667,23.3055553,1
5961,Latvia,Upesgriva,57.3863889,23.0138893,1
5965,Latvia,Abragciems,57.2027778,23.2036114,1
5988,Libya,Tripoli,32.8925,13.1800003,1
5994,Libya,Zuwarah,32.9344444,12.0791664,1
6018,Libya,Az Zuwaytinah,30.9538889,20.121666,1
6112,Lithuania,Neringa,55.3719444,21.0647221,1
6356,Malawi,Nosy Varika,-20.5833333,48.5333328,1
6408,Malawi,Andovoranto,-18.95,49.0999985,1
6451,Maldives,Tawau,4.25,117.9000015,1
6453,Maldives,Kota Baharu,6.1333333,102.25,1
6456,Maldives,Taiping,4.85,100.7333298,1
6459,Maldives,Sibu,2.3,111.8166656,1
6461,Maldives,George Town,5.4166667,100.3333359,1
6466,Maldives,Bintulu,3.1666667,113.0333328,1
6473,Maldives,Lahad Datu,5.0333333,118.3166656,1
6474,Maldives,Port Dickson,2.5166667,101.8000031,1
6475,Maldives,Cukai,4.25,103.4166641,1
6481,Maldives,Victoria,5.2766667,115.2416687,1
6495,Maldives,Kuala Selangor,3.35,101.25,1
6514,Maldives,Kudat,6.8833333,116.8333359,1
6520,Maldives,Sarikei,2.1166667,111.5166702,1
6530,Maldives,Sungai Besar,3.6666667,100.9833298,1
6540,Mali,Hithadhoo,-0.6,73.0833359,1
6547,Mali,Midu,-0.5833333,73.2333298,1
6592,Marshall Islands,Majuro,7.1,171.3833313,1
6594,Marshall Islands,Ine,6.9833333,171.6999969,1
6715,Mexico,Veracruz,19.2,-96.1333313,1
6731,Mexico,Mazatlan,23.2166667,-106.4166641,1
6752,Mexico,Coatzacoalcos,18.15,-94.4166641,1
6755,Mexico,Campeche,19.85,-90.5333328,1
6773,Mexico,Ciudad del Carmen,18.6333333,-91.8333359,1
6777,Mexico,Chetumal,18.5,-88.3000031,1
6794,Micronesia,Kolonia,6.9638889,158.2083282,1
6799,Micronesia,Paata,7.3861111,151.8733368,1
6898,Morocco,El Jadida,33.25,-8.5,1
6933,Morocco,Martil,35.61,-5.27,1
6961,Mozambique,Quelimane,-17.8786111,36.8883324,1
6975,Mozambique,Ilha de Mocambique,-15.0341667,40.7358322,1
6977,Mozambique,Mocimboa,-11.3166667,40.3499985,1
7026,New Zealand,Tauranga,-37.6861111,176.1666718,1
7039,New Zealand,Timaru,-44.4,171.25,1
7089,New Zealand,Bluff,-46.6,168.3333282,1
7179,Nicaragua,Laguna de Perlas,12.35,-83.6666641,1
7358,Norway,Hungnam,39.8316667,127.6186142,1
7362,Norway,Sinuiju,40.1005556,124.398056,1
7390,Norway,Iwon-up,40.3230556,128.6552734,1
7405,Norway,Samho-rodongjagu,39.9475,127.871109,1
7427,Norway,Yomju,39.8933333,124.598053,1
7554,Palau,Meyungs,7.3519444,134.4544373,1
7556,Palau,Kloulklubed,7.0394444,134.2525024,1
7558,Palau,Melekeok,7.4933333,134.6341705,1
7559,Palau,Ngaramasch,6.9013889,134.1294403,1
7561,Palau,Ulimang,7.6216667,134.6388855,1
7562,Palau,Ollei,7.7172222,134.6122284,1
7563,Palau,Oikull,7.3655556,134.5836182,1
7604,Panama,Guabito,9.5,-82.6166687,1
7634,Panama,Ustupo,9.1333333,-77.9333344,1
7644,Panama,Progreso,8.45,-82.8333359,1
7650,Panama,La Esperanza,8.4,-82.8000031,1
7670,Papua New Guinea,Madang,-5.2166667,145.8000031,1
7671,Papua New Guinea,Kokopo,-4.35,152.2666626,1
7677,Papua New Guinea,Daru,-9.0833333,143.1999969,1
7679,Papua New Guinea,Kavieng,-2.5666667,150.8000031,1
7681,Papua New Guinea,Vanimo,-2.6833333,141.3000031,1
7688,Papua New Guinea,Kerema,-7.9666667,145.7666626,1
7694,Papua New Guinea,Ambunti,-4.2333333,142.8333282,1
7702,Papua New Guinea,Buin,-6.8333333,155.7333374,1
7805,Peru,Callao,-12.0666667,-77.1500015,1
7807,Peru,Chiclayo,-6.7736111,-79.8416672,1
7811,Peru,Chimbote,-9.0852778,-78.578331,1
7832,Peru,Paita,-5.0891667,-81.1144409,1
7861,Peru,Mollendo,-17.0230556,-72.0147247,1
7867,Peru,Monsefu,-6.8780556,-79.8722229,1
7877,Peru,Sechura,-5.5569444,-80.8222198,1
7879,Peru,Santiago de Cao,-7.9588889,-79.2391663,1
7895,Peru,San Pedro de Lloc,-7.4327778,-79.5058365,1
7901,Peru,Pimentel,-6.8366667,-79.934166,1
7923,Philippines,Lapu-Lapu City,10.3102778,123.9494476,1
7935,Philippines,Panalanoy,11.2511111,125.0063858,1
7974,Philippines,Ormoc,11.0063889,124.6074982,1
7995,Philippines,Bago,10.5377778,122.8333359,1
8009,Poland,Szczecin,53.4293784,14.5529366,1
8107,Portugal,Setubal,38.5243986,-8.8881969,1
8134,Portugal,Almada,38.6833333,-9.1499996,1
8145,Portugal,Povoa de Santa Iria,38.85,-9.0666666,1
8155,Portugal,Paco de Arcos,38.6956928,-9.2914295,1
8179,Portugal,Cova da Piedade,38.6666667,-9.1499996,1
8187,Portugal,Lagos,37.102015,-8.674221,1
8189,Portugal,Santa Iria da Azoia,38.85,-9.083333,1
8194,Portugal,Sacavem,38.7833333,-9.1000004,1
8199,Portugal,Parede,38.6833333,-9.3500004,1
8206,Qatar,Al Khawr,25.6838889,51.5058327,1
8220,Romania,Constanta,44.1833333,28.6499996,1
8268,Romania,Mangalia,43.8,28.583334,1
8397,Saint Kitts and Nevis,Kingstown,13.1333333,-61.2166672,1
8398,Saint Kitts and Nevis,Kingstown Park,13.1583333,-61.2350006,1
8400,Saint Kitts and Nevis,Byera Village,13.25,-61.1166649,1
8506,Samoa,Vaitele,-13.8166667,-171.7833405,1
8509,Samoa,Malie,-13.8,-171.8166656,1
8511,Samoa,Vaiusu,-13.8166667,-171.7666626,1
8512,Samoa,Afenga,-13.8,-171.8166656,1
8532,Samoa,Toamua,-13.8,-171.7833405,1
8538,Samoa,Vaigaga,-13.8166667,-171.8000031,1
8552,Samoa,Sasina,-13.45,-172.4333344,1
8570,Samoa,Tafua,-13.7833333,-172.2166595,1
8580,Samoa,Leusoalii,-13.85,-171.6666718,1
8588,Samoa,Tufutafoe,-13.4833333,-172.7666626,1
8610,Senegal,Kolda,12.8833333,-14.9499998,1
8612,Senegal,Joal-Fadiout,14.1666667,-16.833334,1
8624,Senegal,Kayar,14.9191667,-17.1211109,1
8643,Senegal,Foundiougne,14.1333333,-16.4666672,1
8646,Senegal,Warang,14.3734946,-16.9436646,1
8697,Slovenia,Piran,45.5277778,13.5705557,1
8753,Solomon Islands,Tulaghi,-9.1,160.1499939,1
8755,Solomon Islands,Lata,-10.7166667,165.8333282,1
8763,Somalia,Bender Cassim,11.2847222,49.1824989,1
8790,Somalia,Bargaal,11.2833333,51.0833321,1
8873,South Africa,Saldanha,-33.0166667,17.9500008,1
8989,Spain,Malaga,36.7201559,-4.4203448,1
8996,Spain,Alacant,38.3451735,-0.4814887,1
9000,Spain,A Coruna,43.3713496,-8.3960009,1
9017,Spain,Santander,43.4647222,-3.8044443,1
9027,Spain,Huelva,37.2583333,-6.9508333,1
9041,Spain,Algeciras,36.1275,-5.4538889,1
9060,Spain,El Puerto de Santa Maria,36.5938924,-6.2329817,1
9079,Spain,Benidorm,38.5381628,-0.1309776,1
9083,Sri Lanka,Colombo,6.9319444,79.8477783,1
9086,Sri Lanka,Jaffna,9.6666667,80,1
9091,Sri Lanka,Trincomalee,8.5666667,81.2333298,1
9092,Sri Lanka,Kalmunai,7.4166667,81.8166656,1
9094,Sri Lanka,Point Pedro,9.8166667,80.2333298,1
9095,Sri Lanka,Batticaloa,7.7166667,81.6999969,1
9097,Sri Lanka,Valvedditturai,9.8166667,80.1666641,1
9105,Sri Lanka,Hendala,6.9838889,79.8763885,1
9114,Sri Lanka,Panadura,6.7133333,79.9041672,1
9230,Suriname,Nieuw Nickerie,5.95,-56.9833336,1
9232,Suriname,Nieuw Amsterdam,5.8833333,-55.0833321,1
9233,Suriname,Marienburg,5.8833333,-55.0499992,1
9239,Suriname,Totness,5.8833333,-56.3166656,1
9297,Sweden,Karlskrona,56.1615642,15.586606,1
9306,Sweden,Ornskoldsvik,63.290914,18.7152538,1
9356,Sweden,Nynashamn,58.9033657,17.9479256,1
9361,Sweden,Strangnas,59.3774087,17.0311909,1
9606,Tanzania,Tanga,-5.0666667,39.0999985,1
9620,Tanzania,Bagamoyo,-6.4333333,38.9000015,1
9632,Tanzania,Lindi,-10,39.7166672,1
9680,Tanzania,Sokoni,-6.4333333,39.5499992,1
9754,Thailand,Narathiwat,6.4244444,101.8236084,1
9795,Thailand,Yaring,6.8616667,101.3649979,1
9822,Tonga,Neiafu,-18.65,-173.9833374,1
9823,Tonga,Havelu,-21.15,-175.2166595,1
9824,Tonga,Vaini,-21.2,-175.1999969,1
9827,Tonga,Hihifo,-15.95,-173.75,1
9834,Tunisia,Gabes,33.8833333,10.1166668,1
9837,Tunisia,La Goulette,36.8180556,10.3050003,1
9839,Tunisia,Monastir,35.7833333,10.833333,1
9846,Tunisia,Douane,36.4447222,10.7508335,1
9851,Tunisia,Hammam-Lif,36.7330556,10.3361111,1
9865,Tunisia,Korba,36.5786111,10.8586111,1
9870,Tunisia,Ksour Essaf,35.4202778,10.9980555,1
9894,Tunisia,As Sayyadah,35.6666667,10.8999996,1
9920,Tunisia,Harqalah,36.0333333,10.5,1
9955,Turkey,Trabzon,41.005,39.726944,1
9982,Turkey,Ordu,40.9847222,37.8788872,1
10017,Turkey,Fatsa,41.0277778,37.5013885,1
10022,Turkey,Unye,41.1313889,37.2825012,1
10109,Ukraine,Kerch,45.3583333,36.4758339,1
10131,Ukraine,Feodosiya,45.0333333,35.3833351,1
10202,Uruguay,Punta del Este,-34.9666667,-54.9500008,1
10225,Uruguay,La Paloma,-34.6666667,-54.1666679,1
10330,Venezuela,Tucupita,9.0686111,-62.0491676,1
10334,Venezuela,Lagunillas,10.1408333,-71.2613907,1
10350,Venezuela,Santa Rita,10.5380556,-71.5169449,1
10365,Vietnam,Can Tho,10.0333333,105.7833328,1
10366,Vietnam,Rach Gia,10.0166667,105.0833359,1
10368,Vietnam,Vung Tau,10.35,107.0666656,1
10369,Vietnam,Nam Dinh,20.4166667,106.1666641,1
10378,Vietnam,My Tho,10.35,106.3499985,1
10379,Vietnam,Soc Trang,9.6033333,105.9800034,1
10382,Vietnam,Ca Mau,9.1769444,105.1500015,1
10383,Vietnam,Bac Lieu,9.285,105.7244415,1
10386,Vietnam,Vinh Long,10.25,105.9666672,1
10390,Vietnam,Chau Doc,10.7,105.1166687,1
10392,Vietnam,Tan An,10.5333333,106.4166641,1
10394,Vietnam,Sa Dec,10.3,105.7666702,1
10395,Vietnam,Ben Tre,10.2333333,106.3833313,1
10397,Vietnam,Hai Duong,20.9333333,106.3166656,1
10398,Vietnam,Tra Vinh,9.9347222,106.3452759,1
10425,Yemen,Al Mukalla,14.53,49.1313896,1
8960,Korea,Yonil,35.9941667,129.3450012,2
3811,Gambia,Essau,13.4838889,-16.5347214,2
3870,Gambia,Massembe,13.4166667,-15.6333332,2
3855,Gambia,Jenoi,13.4833333,-15.5666666,2
3830,Gambia,Sankwia,13.4666667,-15.5166664,2
3873,Gambia,Sambang,13.5333333,-15.333333,2
283,United States,New York City,40.7142691,-74.0059738,2
302,United States,Baltimore,39.2903848,-76.6121902,2
330,United States,Miami,25.7742658,-80.1936569,2
368,United States,Hialeah,25.8575963,-80.2781067,2
630,Australia,Rockhampton,-23.3833333,150.5,2
655,Australia,Geraldton,-28.7666667,114.5999985,2
909,Bahrain,Dar Kulayb,26.0686111,50.5038872,2
927,Bangladesh,Barisal,22.7019444,90.371109,2
949,Bangladesh,Netrakona,24.8833333,90.7166672,2
956,Bangladesh,Lakshmipur,22.95,90.8333359,2
969,Bangladesh,Dakshin Char Fasson,22.2166667,90.7333298,2
971,Bangladesh,Barahanuddin,22.5,90.7166672,2
981,Bangladesh,Gaurnadi,22.9666667,90.2333298,2
984,Bangladesh,Mehendiganj,22.8166667,90.5333328,2
987,Bangladesh,Nalchiti,22.6333333,90.2833328,2
1003,Bangladesh,Bhandaria,22.4833333,90.0666656,2
1122,Belgium,Oostende,51.2166667,2.9166667,2
1483,Brazil,Natal,-5.795,-35.209446,2
1508,Brazil,Santos,-23.9608333,-46.3336105,2
1518,Brazil,Olinda,-8.0088889,-34.855278,2
1644,United Kingdom,Hastings,50.8529919,0.5645943,2
2036,Canada,Sept-Iles,50.2001125,-66.3820801,2
2060,Cape Verde,Vila do Maio,15.1333333,-23.2166672,2
2204,Chile,Arauco,-37.246301,-73.3175201,2
2333,China,Yingkou,40.6680556,122.2247238,2
2539,Costa Rica,Puerto Limon,10,-83.0333328,2
2752,Cuba,Cardenas,23.0375,-81.2047195,2
2790,Cuba,Santa Cruz del Sur,20.7147222,-77.9955521,2
3056,Denmark,Koge,55.4580174,12.1821375,2
3073,Denmark,Ishoj,55.6154254,12.351819,2
3100,Denmark,Dragor,55.5945464,12.666378,2
3198,Netherlands,Den Helder,52.953333,4.7597222,2
3219,Netherlands,Drachten,53.1,6.0999999,2
3221,Netherlands,De Bilt,52.11,5.1805558,2
3570,Fiji,Nandi,-17.8,177.4166718,2
3730,France,Dunkerque,51.05,2.3666668,2
4659,Iceland,Akureyri,65.6666667,-18.1000004,2
4675,Iceland,Siglufjordur,66.15,-18.916666,2
4683,Iceland,Bolungarvik,66.15,-23.25,2
4843,Indonesia,Jakarta,-6.1744444,106.8294449,2
4900,Indonesia,Probolinggo,-7.75,113.2166672,2
5067,Iraq,Ash Shatrah,31.4175,46.1772232,2
5147,Ireland,Tra Mhor,52.16235,-7.1524429,2
5496,Japan,Chiba,35.6,140.1166687,2
6450,Maldives,Kuantan,3.8,103.3333359,2
6457,Maldives,Alor Setar,6.1166667,100.3666687,2
6465,Maldives,Batu Pahat,1.85,102.9333344,2
6491,Maldives,Semporna,4.4811111,118.6158371,2
6509,Maldives,Kelebang Besar,2.2166667,102.1999969,2
6711,Mexico,Mexicali,32.6519444,-115.4683304,2
6796,Micronesia,Nan Uh,6.9502778,158.2711182,2
6966,Mozambique,Pemba,-12.9608333,40.5077782,2
6968,Mozambique,Antonio Enes,-16.2325,39.9086113,2
7369,Norway,Yuktae-dong,40.0247222,128.159729,2
7397,Norway,Kowon-up,39.4380556,127.2430573,2
7410,Norway,Sinsang-ni,39.6502778,127.4058304,2
7565,Panama,Panama,8.9666667,-79.5333328,2
7570,Panama,Colon,9.3591667,-79.9013901,2
7586,Panama,Pedregal,8.3666667,-82.4333344,2
7842,Peru,Lambayeque,-6.7011111,-79.9061127,2
7907,Philippines,Zamboanga,6.9102778,122.0738907,2
7963,Philippines,Tanza,14.6752778,120.9388885,2
7973,Philippines,Ozamis,8.1458333,123.8444443,2
8186,Portugal,Sao Joao da Talha,38.8166667,-9.083333,2
8221,Romania,Galati,45.45,28.0499992,2
8594,Samoa,Avata,-13.4833333,-172.7833405,2
8987,Spain,Sevilla,37.3772222,-5.9869442,2
9087,Sri Lanka,Negombo,7.2086111,79.8358307,2
9096,Sri Lanka,Katunayaka,7.1647222,79.8730545,2
9113,Sri Lanka,Beruwala,6.4738889,79.984169,2
9118,Sri Lanka,Wattala,6.9897222,79.8933334,2
9132,Sri Lanka,Tangalla,6.0230556,80.788887,2
9142,Sri Lanka,Hikkaduwa,6.1402778,80.1038895,2
9234,Suriname,Wageningen,5.7666667,-56.6833344,2
9273,Sweden,Norrkoping,58.5941863,16.1826038,2
9346,Sweden,Hudiksvall,61.7289748,17.1035786,2
9602,Tanzania,Zanzibar,-6.1639369,39.1979332,2
9700,Thailand,Bangkok,13.75,100.5166702,2
9701,Thailand,Samut Prakan,13.5993364,100.596756,2
9707,Thailand,Pak Kret,13.9166667,100.5,2
9709,Thailand,Phra Pradaeng,13.6666667,100.5333328,2
9712,Thailand,Surat Thani,9.1333333,99.3166656,2
9728,Thailand,Bang Kruai,13.8,100.4833298,2
9730,Thailand,Krathum Baen,13.65,100.2666702,2
9735,Thailand,Samut Sakhon,13.5333333,100.2833328,2
9736,Thailand,Ban Lam Luk Ka,13.9773817,100.7777634,2
9751,Thailand,Chachoengsao,13.7,101.0833359,2
9766,Thailand,Ban Phaeo,13.5833333,100.1166687,2
9767,Thailand,Bang Bua Thong,13.9166667,100.4333344,2
9777,Thailand,Sam Phran,13.7166667,100.2166672,2
9793,Thailand,Krabi,8.0666667,98.9166641,2
9794,Thailand,Ban Bang Sao Thong,13.6666667,100.8166656,2
9969,Turkey,Iskenderun,36.5816667,36.1650009,2
9979,Turkey,Tekirdag,40.9805556,27.5149994,2
10174,Uruguay,San Carlos,-34.8,-54.9166679,2
10192,Uruguay,Chuy,-33.6833333,-53.4500008,2
10213,Uruguay,Barra de Carrasco,-34.8772222,-56.0297203,2
10252,Uruguay,San Javier,-32.6833333,-58.1333351,2
10371,Vietnam,Long Xuyen,10.3833333,105.4166641,2
10391,Vietnam,Tuy Hoa,13.0833333,109.3000031,2
8944,Korea,Koje,34.8502778,128.5886078,3
267,Algeria,El Hadjar,36.8047222,7.7383332,3
324,United States,Virginia Beach,36.8529263,-75.9779816,3
362,United States,Norfolk,36.8468146,-76.2852173,3
465,Argentina,Campana,-34.1769444,-58.9208336,3
473,Argentina,Concepcion del Uruguay,-32.4833333,-58.2283325,3
479,Argentina,Punta Alta,-38.8833333,-62.0833321,3
687,Australia,Deception Bay,-27.2,153.0333405,3
859,Azerbaijan,Goytapa,39.1166667,48.5952797,3
913,Bahrain,Al Hadd,26.2455556,50.6541672,3
954,Bangladesh,Raipur,23.05,90.7666702,3
959,Bangladesh,Ramganj,23.1,90.8499985,3
961,Bangladesh,Pirojpur,22.5666667,89.9833298,3
1000,Bangladesh,Nabinagar,23.8916667,90.9733353,3
1109,Belgium,Antwerp,51.2166667,4.4166665,3
1113,Belgium,Brugge,51.2097871,3.2250023,3
1131,Belgium,Dendermonde,51.0333333,4.1166668,3
1137,Belgium,Lokeren,51.1,3.9833333,3
1158,Belgium,Evergem,51.1166667,3.7,3
1195,Belgium,Hamme,51.1,4.1333332,3
1196,Belgium,Willebroek,51.0666667,4.3666668,3
1202,Belgium,Maldegem,51.2166667,3.45,3
1490,Brazil,Joao Pessoa,-7.115,-34.8630562,3
1773,Myanmar,Bago,17.3366667,96.4797211,3
1968,Canada,Richmond,49.1700323,-123.1368256,3
2237,Chile,Carahue,-38.7,-73.1666641,3
2287,China,Shenzhen,22.5455377,114.0682983,3
2324,China,Yancheng,33.3855556,120.1252747,3
2326,China,Panshan,41.1880556,122.0494461,3
2785,Cuba,Caibarien,22.5205556,-79.4669418,3
2818,Cuba,Varadero,23.1536111,-81.2513885,3
2836,Cuba,Baragua,21.6966667,-78.6327744,3
3086,Denmark,Nakskov,54.8333333,11.1499996,3
3124,Denmark,Tonder,54.9330598,8.8667393,3
3153,Netherlands,Breda,51.5865631,4.7759628,3
3201,Netherlands,Oosterhout,51.645,4.8597221,3
3213,Netherlands,Waalwijk,51.6825,5.0708332,3
3223,Netherlands,Harderwijk,52.341667,5.6208329,3
3229,Netherlands,Nijkerk,52.22,5.4861112,3
3259,Ecuador,La Libertad,-2.2333333,-80.9000015,3
3407,Estonia,Loksa,59.5763889,25.7213898,3
3906,Georgia,Kobuleti,41.82,41.7752762,3
3971,Germany,Hamburg,53.55,10,3
3979,Germany,Bremen,53.0751557,8.8077736,3
4038,Germany,Bremerhaven,53.55,8.583333,3
4238,Greece,Alexandreia,40.6266667,22.4441662,3
4393,Haiti,Aquin,18.2833333,-73.4000015,3
4432,Haiti,Torbeck,18.1666667,-73.8119431,3
4470,Honduras,Tela,15.7833333,-87.4499969,3
4712,Iceland,Sudavik,66.0333333,-23,3
4717,Iceland,Litli-Arskogssandur,65.95,-18.3666668,3
4848,Indonesia,Palembang,-2.9167253,104.7457962,3
4871,Indonesia,Percut,3.6833333,98.75,3
5086,Iraq,Al Majarr al Kabir,31.575,47.1580544,3
5114,Ireland,Dun Dealgan,54,-6.4166665,3
5332,Italy,Ravenna,44.4175,12.2011108,3
5401,Italy,Viareggio,43.873543,10.2557993,3
5417,Jamaica,Morant Bay,17.8833333,-76.4166641,3
5549,Japan,Aomori,40.8211111,140.7511139,3
5563,Japan,Hiratsuka,35.3230556,139.3422241,3
5807,Kenya,Takaungu,-3.6833333,39.8499985,3
5932,Latvia,Mersrags,57.34,23.1213894,3
6455,Maldives,Miri,4.3833333,113.9833298,3
6486,Maldives,Perai,5.3833333,100.3833313,3
6842,Moldova,Pervomaisc,46.7338889,29.9586105,3
7053,New Zealand,Motueka,-41.1333333,173.0166626,3
7073,New Zealand,Katikati,-37.55,175.9166718,3
7100,New Zealand,Edgecumbe,-37.9833333,176.8333282,3
7116,New Zealand,Ngatea,-37.2833333,175.5,3
7403,Norway,Sil-li,39.4947222,125.4736099,3
7414,Norway,Pyoksong-up,38.0475,125.5566635,3
7830,Peru,Pisco,-13.7,-76.2166672,3
7859,Peru,Pacasmayo,-7.4005556,-79.5713882,3
7904,Philippines,Davao,7.0730556,125.6127777,3
7943,Philippines,Naga,13.6191667,123.1813889,3
7982,Philippines,Panabo,7.3080556,125.684166,3
7997,Philippines,Kawit,14.4455556,120.9049988,3
8076,Poland,Tczew,54.1,18.7999992,3
8212,Qatar,Fuwayrit,26.0216667,51.3669434,3
9084,Sri Lanka,Galkissa,6.8333333,79.8666687,3
9110,Sri Lanka,Kalutara,6.5761111,79.9658356,3
9119,Sri Lanka,Peliyagoda,6.95,79.9000015,3
9124,Sri Lanka,Chilaw,7.5758333,79.7952805,3
9228,Suriname,Paramaribo,5.8333333,-55.1666679,3
9276,Sweden,Gavle,60.6745238,17.1417408,3
9328,Sweden,Falkenberg,56.9055168,12.4911757,3
9755,Thailand,Pran Buri,12.3833333,99.9166641,3
9994,Turkey,Manavgat,36.7866667,31.4430561,3
10205,Uruguay,Lascano,-33.6666667,-54.2000008,3
10258,Venezuela,Maracaibo,10.6316667,-71.6405563,3
10263,Venezuela,Barcelona,10.1333333,-64.6999969,3
10361,Vietnam,Haiphong,20.8561111,106.6822205,3
10363,Vietnam,Hue,16.4666667,107.5999985,3
10364,Vietnam,Nha Trang,12.25,109.1833344,3
10401,Vietnam,Thai Binh,20.45,106.3333359,3
8971,Korea,Kosong,34.9727778,128.3236084,4
346,United States,Stockton,37.9577016,-121.2907791,4
503,Argentina,Rawson,-43.3,-65.0999985,4
666,Australia,Maryborough,-25.5333333,152.6999969,4
914,Bangladesh,Dhaka,23.7230556,90.4086075,4
919,Bangladesh,Tungi,23.89,90.4058304,4
922,Bangladesh,Narsingdi,23.9208333,90.7180557,4
925,Bangladesh,Narayanganj,23.6233333,90.5011139,4
973,Bangladesh,Dohar,23.5883333,90.1469421,4
974,Bangladesh,Hajiganj,23.2511111,90.859169,4
990,Bangladesh,Baniachang,24.5166667,91.3666687,4
995,Bangladesh,Char Bhadrasan,23.3166667,90.2166672,4
1110,Belgium,Gent,51.05,3.7166667,4
1118,Belgium,Mechelen,51.0333333,4.4666667,4
1138,Belgium,Brasschaat,51.2833333,4.4499998,4
1150,Belgium,Schoten,51.25,4.5,4
1208,Belize,Belize City,17.4995177,-88.1975555,4
2274,China,Suzhou,31.3113889,120.6180573,4
2747,Cuba,Matanzas,23.0411111,-81.5774994,4
2754,Cuba,Puerto Padre,21.195,-76.6027756,4
3034,Denmark,Copenhagen,55.6776812,12.5709343,4
3041,Denmark,Kolding,55.4903995,9.4721651,4
3079,Denmark,Nyborg,55.3127356,10.7896366,4
3088,Denmark,Middelfart,55.5059099,9.7305422,4
3159,Netherlands,Amersfoort,52.155,5.3874998,4
3196,Netherlands,Zeist,52.09,5.2333331,4
3405,Estonia,Kardla,58.9977778,22.7491665,4
3728,France,Calais,50.9581023,1.8520546,4
4007,Germany,Lubeck,53.868927,10.687294,4
4447,Haiti,Caracol,19.6908333,-72.0161133,4
4665,Iceland,Saudarkrokur,65.75,-19.6499996,4
4693,Iceland,Skagastrond,65.8333333,-20.3166676,4
5053,Iraq,An Nasiriyah,31.0541667,46.2594452,4
5209,Israel,Ashdod,31.8166667,34.6500015,4
5323,Italy,Mestre,45.4902778,12.2425003,4
5485,Japan,Osaka,34.6937398,135.502182,4
5497,Japan,Sakai,34.5833333,135.4666595,4
5516,Japan,Amagasaki,34.7166667,135.4166718,4
5555,Japan,Ichihara,35.5166667,140.0833282,4
5825,Kenya,Gazi,-4.4166667,39.5,4
5900,Latvia,Kekava,56.8294444,24.2372227,4
5937,Latvia,Engure,57.1630556,23.2241669,4
6125,Lithuania,Priekule,55.5536111,21.3266659,4
6359,Malawi,Amboasary,-25.0333333,46.3833351,4
6470,Maldives,Muar,2.0333333,102.5666656,4
6526,Maldives,Parit Buntar,5.1166667,100.5,4
6739,Mexico,Tampico,22.2166667,-97.8499985,4
6770,Mexico,Minatitlan,17.9833333,-94.5166702,4
6851,Moldova,Crasnoe,46.6513889,29.8047218,4
6956,Mozambique,Matola,-25.9622222,32.458889,4
7070,New Zealand,Hokitika,-42.7166667,170.9666595,4
7106,New Zealand,Parakai,-36.65,174.4333344,4
7361,Norway,Chongjin,41.7955556,129.7758331,4
7421,Norway,Hoemul-li,41.4338889,129.6699982,4
7435,Oman,Suhar,24.3688889,56.7438889,4
7443,Oman,Al Khaburah,23.9811111,57.1044426,4
7534,Pakistan,Badin,24.65,68.8333359,4
7903,Philippines,Manila,14.6041667,120.9822235,4
7939,Philippines,Cotabato,7.2236111,124.2463913,4
8224,Romania,Braila,45.2666667,27.9833336,4
8789,Somalia,Laasqoray,11.1666667,48.2166672,4
9120,Sri Lanka,Kelaniya,6.96,79.8977814,4
9285,Sweden,Halmstad,56.6744622,12.856761,4
9718,Thailand,Nakhon Pathom,13.8166667,100.0500031,4
9772,Thailand,Bang Lamung,13.0470378,100.9289093,4
9838,Tunisia,Zarzis,33.5,11.1166668,4
9855,Tunisia,Rades,36.7680556,10.2752781,4
10255,Uruguay,Cebollati,-33.2666667,-53.7833328,4
10272,Venezuela,Cumana,10.4666667,-64.1666641,4
10287,Venezuela,Punto Fijo,11.6997222,-70.1991653,4
10319,Venezuela,Punta Cardon,11.6580556,-70.2149963,4
10358,Vietnam,Thanh pho Ho Chi Minh,10.75,106.6666641,4
3800,Gambia,Banjul,13.4564084,-16.5812874,5
3808,Gambia,Bansang,13.4333333,-14.6499996,5
319,United States,Sacramento,38.5815719,-121.4944,5
910,Bahrain,Madinat `Isa,26.173611,50.5477791,5
945,Bangladesh,Feni,23.0186111,91.4100037,5
952,Bangladesh,Palang,23.2166667,90.3499985,5
1130,Belgium,Beveren,51.2166667,4.25,5
1149,Belgium,Knokke-Heist,51.35,3.2666667,5
1498,Brazil,Aracaju,-10.9111111,-37.0716667,5
1623,United Kingdom,Colchester,51.8833333,0.9,5
1781,Myanmar,Dawei,14.0833333,98.1999969,5
1809,Myanmar,Thongwa,16.7619444,96.5277786,5
1819,Myanmar,Wakema,16.6,95.1833344,5
1822,Myanmar,Kayan,16.9055556,96.5630569,5
2020,Canada,Courtenay,49.6829411,-124.9861298,5
2167,Chile,San Antonio,-33.5933333,-71.621666,5
2275,China,Shantou,23.36,116.6783371,5
2288,China,Jieyang,23.5297222,116.3655548,5
2300,China,Qinhuangdao,39.9316667,119.5883331,5
2312,China,Huangshi,30.2166667,115.0999985,5
2375,Colombi,Malambo,10.8588889,-74.773056,5
2378,Colombi,Riohacha,11.5444444,-72.9072189,5
2558,Costa Rica,Chacarita,9.9833333,-84.7833328,5
2737,Cuba,Havana,23.1319444,-82.3641663,5
3042,Denmark,Vejle,55.7092707,9.5357037,5
3044,Denmark,Hvidovre,55.6571864,12.4736395,5
3063,Denmark,Svendborg,55.0598194,10.6067715,5
3069,Denmark,Skive,56.5666667,9.0333328,5
3076,Denmark,Nykobing Falster,54.7690581,11.8742466,5
3078,Denmark,Kalundborg,55.6833333,11.1000004,5
3085,Denmark,Grenaa,56.4157827,10.8782454,5
3090,Denmark,Vallensbaek,55.6333333,12.3666668,5
3091,Denmark,Thisted,56.9552254,8.6949062,5
3093,Denmark,Varde,55.6211205,8.4806948,5
3105,Denmark,Tarnby,55.6302976,12.6003532,5
3110,Denmark,Ringkobing,56.090062,8.2440166,5
3111,Denmark,Vordingborg,55.0080051,11.9105692,5
3123,Denmark,Ribe,55.35,8.7666664,5
3132,Denmark,Faaborg,55.0951047,10.2422647,5
3167,Netherlands,Deventer,52.255,6.1638889,5
3175,Netherlands,Hilversum,52.223333,5.1763892,5
3177,Netherlands,Roosendaal,51.530833,4.4652781,5
3222,Netherlands,Tiel,51.886667,5.4291668,5
3384,Estonia,Kuressaare,58.2480556,22.5038891,5
3613,Finland,Raahe,64.6833333,24.4833336,5
3651,Finland,Ulvila,61.4333333,21.8833332,5
3684,France,Le Havre,49.4938035,0.1076746,5
3705,France,Caen,49.1810862,-0.3712177,5
3767,France,Arles,43.6768113,4.6303082,5
4167,Greece,Chania,35.5122222,24.0155563,5
4260,Guatemala,Puerto Barrios,15.7166667,-88.5999985,5
4473,Honduras,San Lorenzo,13.4241667,-87.4472198,5
4691,Iceland,Eyrarbakki,63.8666667,-21.1499996,5
4719,Iceland,Reykholar,65.45,-22.2000008,5
4920,Indonesia,Tanjungbalai,2.9666667,99.8000031,5
4931,Indonesia,Teluknaga,-6.0988889,106.6380539,5
4953,Iran,Rasht,37.2794444,49.5858345,5
5054,Iraq,Al `Amarah,31.8452778,47.1752777,5
5072,Iraq,Ash Shamiyah,31.9630556,44.5977783,5
5122,Ireland,Sligeach,54.2696915,-8.469429,5
5328,Italy,Livorno,43.542636,10.3160048,5
5334,Italy,Rimini,44.0633333,12.5808334,5
5491,Japan,Kawasaki,35.5205556,139.7172241,5
5511,Japan,Kawaguchi,35.805,139.7205505,5
5860,Kuwait,Al Mahbulah,29.145,48.1302795,5
5881,Latvia,Olaine,56.7852778,23.938055,5
5956,Latvia,Kulciems,57.2655556,23.0319443,5
5964,Latvia,Dzedri,57.2486111,23.0266666,5
6020,Libya,Zaltan,32.95,11.8666668,5
6442,Maldives,Johor Bahru,1.4666667,103.75,5
6444,Maldives,Kuching,1.55,110.3333359,5
6533,Maldives,Batu Berendam,2.25,102.25,5
6716,Mexico,Cancun,21.1742876,-86.8465576,5
7068,New Zealand,Westport,-41.7526171,171.6036987,5
7088,New Zealand,Paihia,-35.2833333,174.0833282,5
7172,Nicaragua,Puerto Morazan,12.85,-87.1833344,5
7666,Papua New Guinea,Lae,-6.7333333,147,5
7913,Philippines,Bacoor,14.4577778,120.9424973,5
7945,Philippines,Legaspi Port,13.1466667,123.7558365,5
7950,Philippines,Talisay,10.2447222,123.8494415,5
7957,Philippines,Digos,6.7497222,125.3572235,5
7980,Philippines,Victorias City,10.9,123.077774,5
8001,Philippines,Sagay,10.9447222,123.4241638,5
8315,Russia,Saint Petersburg,59.8944444,30.2641659,5
8331,Russia,Vladivostok,43.1056202,131.8735352,5
9057,Spain,Aviles,43.5569444,-5.9247222,5
9066,Spain,Ferrol,43.4833333,-8.2333336,5
9117,Sri Lanka,Ja-Ela,7.0844444,79.894722,5
9298,Sweden,Kristianstad,56.0312875,14.1524181,5
9325,Sweden,Vaestervik,57.7583974,16.6373348,5
9757,Thailand,Phetchaburi,13.1,99.9499969,5
9785,Thailand,Samut Songkhram,13.4,100,5
9863,Tunisia,Hammam Sousse,35.8588889,10.5938892,5
10189,Uruguay,Juan L. Lacaze,-34.4333333,-57.4166679,5
10240,Uruguay,Las Toscas,-34.7333333,-55.7166672,5
8978,Korea,Aewol-li,33.4644444,126.3183365,6
8908,Korea,Ulsan,35.5372222,129.3166656,6
3868,Gambia,Sintet,13.2333333,-15.8166666,6
3816,Gambia,Georgetown,13.5333333,-14.7666664,6
3857,Gambia,Kunting,13.5333333,-14.666667,6
349,United States,Corpus Christi,27.8005828,-97.3963776,6
390,Angola,Luanda,-8.8383333,13.2344446,6
398,Angola,Soyo,-6.1333333,12.3666668,6
448,Argentina,San Nicolas de los Arroyos,-33.3302778,-60.226944,6
658,Australia,Palmerston,-12.4860237,130.9832916,6
911,Bahrain,Sitrah,26.1547222,50.6205559,6
943,Bangladesh,Habiganj,24.3833333,91.4166641,6
955,Bangladesh,Tungipara,22.9,89.9166641,6
962,Bangladesh,Sandwip,22.4677778,91.4561081,6
963,Bangladesh,Satkania,22.0755556,92.0513916,6
986,Bangladesh,Chhatak,25.0333333,91.6666641,6
1568,United Kingdom,Liverpool,53.4166667,-3,6
1577,United Kingdom,Cardiff,51.48,-3.1800001,6
1607,United Kingdom,Ipswich,52.0546544,1.1569977,6
1825,Myanmar,Thanatpin,17.3,96.5833359,6
1826,Myanmar,Letpandan,17.7833333,95.75,6
2009,Canada,Charlottetown,46.2352496,-63.1267128,6
2240,China,Shanghai,31.2222222,121.4580536,6
2328,China,Taizhou,32.4933333,119.9080582,6
2508,Comoros,Ivouani,-11.3875,43.3863907,6
2825,Cuba,Santa Cruz del Norte,23.1538889,-81.9236145,6
3038,Denmark,Frederiksberg,55.679375,12.5346279,6
3179,Netherlands,Oss,51.765,5.5180559,6
3195,Netherlands,Veenendaal,52.0286272,5.5589104,6
3749,France,Lorient,47.75,-3.3666668,6
4306,Guatemala,Puerto San Jose,13.9255556,-90.8244476,6
4502,Honduras,Monjaras,13.2005556,-87.3741684,6
4518,Honduras,Cuyamel,15.6666667,-88.1999969,6
4699,Iceland,Djupivogur,64.65,-14.2833328,6
4872,Indonesia,Bengkulu,-3.800443,102.2655411,6
5044,Iraq,Al Basrah,30.4941667,47.8191681,6
5046,Iraq,Al Basrah al Qadimah,30.4955556,47.8175011,6
5116,Ireland,Sord,53.4597222,-6.2180557,6
5575,Japan,Soka,35.8202778,139.8044434,6
5871,Latvia,Jurmala,56.9608333,23.75,6
6440,Maldives,Klang,3.0333333,101.4499969,6
6497,Maldives,Kota Tinggi,1.7333333,103.9000015,6
6726,Mexico,Matamoros,25.8833333,-97.5,6
6801,Micronesia,Malem,5.2886111,163.0238953,6
6856,Moldova,Tiraspolul Nou,46.8319444,29.5766659,6
7040,New Zealand,Blenheim,-41.5160328,173.9528046,6
7375,Norway,Anju,39.6177778,125.6647186,6
7598,Panama,Ancon,8.9666667,-79.5500031,6
7667,Papua New Guinea,Arawa,-6.2166667,155.5500031,6
7696,Papua New Guinea,Angoram,-4.0666667,144.0666656,6
7851,Peru,La Union,-5.4,-80.75,6
7916,Philippines,Mandaue City,10.3236111,123.922226,6
7978,Philippines,Surigao,9.7838889,125.4888916,6
8877,South Africa,Knysna,-34.0362664,23.0471268,6
9005,Spain,Badalona,41.4500447,2.2474122,6
9116,Sri Lanka,Kandana,7.0477778,79.8938904,6
9235,Suriname,Albina,5.5,-54.0499992,6
9263,Sweden,Goteborg,57.7071623,11.9667931,6
9280,Sweden,Moelndal,57.6553954,12.0137749,6
9294,Sweden,Kalmar,56.6615749,16.3616257,6
9320,Sweden,Pitea,65.3171748,21.4794407,6
9616,Tanzania,Mtwara,-10.2666667,40.1833344,6
9720,Thailand,Chanthaburi,12.6,102.1500015,6
9723,Thailand,Ratchaburi,13.5333333,99.8000031,6
9740,Thailand,Lop Buri,14.8,100.6166687,6
9799,Thailand,Bang Phae,13.7,99.9333344,6
9901,Tunisia,Qusaybat al Madyuni,35.6833333,10.8500004,6
9924,Tunisia,Mellouleche,35.1666667,11.0363894,6
9939,Turkey,Mercin,36.7952647,34.6179199,6
10323,Venezuela,San Carlos del Zulia,9.0041667,-71.9163895,6
10389,Vietnam,Phan Rang-Thap Cham,11.5666667,108.9833298,6
10420,Vietnam,Dong Ha,16.8166667,107.1333313,6
8980,Korea,Puan,35.7280556,126.7319412,7
8983,Korea,Polgyo,34.8430556,127.3433304,7
8902,Korea,Pusan,35.1027778,129.0402832,7
3818,Gambia,Kerewan,13.4894444,-16.0911102,7
90,Albania,Fier-Cifci,40.7166667,19.5666676,7
294,United States,Jacksonville,30.3321838,-81.6556473,7
634,Australia,Bundaberg,-24.85,152.3500061,7
697,Australia,Port Augusta,-32.5,137.7666626,7
701,Australia,Raymond Terrace,-32.75,151.75,7
867,Azerbaijan,Zardab,40.2183333,47.7083321,7
915,Bangladesh,Chittagong,22.3330556,91.8363876,7
964,Bangladesh,Patiya,22.2947222,91.9791641,7
1004,Bangladesh,Mathbaria,22.3,89.9499969,7
1005,Bangladesh,Raojan,22.5383333,91.9147186,7
1482,Brazil,Duque de Caxias,-22.7855556,-43.3116684,7
1530,Brazil,Pelotas,-31.7719444,-52.3424988,7
1824,Myanmar,Mawlamyinegyunn,16.3833333,95.2666702,7
1844,Cambodia,Kampot,10.6166667,104.1833344,7
2017,Canada,Sorel-Tracy,46.0333622,-73.1158447,7
2282,China,Wuxi,31.5772222,120.2938919,7
2291,China,Changzhou,31.7833333,119.9666672,7
2320,China,Zhanjiang,21.2,110.3833313,7
2416,Colombi,Turbo,8.0980556,-76.7316666,7
2433,Colombi,Lorica,9.2316667,-75.819725,7
2628,Costa Rica,Parrita,9.5166667,-84.3166656,7
2761,Cuba,Moron,22.1094444,-78.6275024,7
2883,Cyprus,Polis,35.0366667,32.4263878,7
3191,Netherlands,Bergen op Zoom,51.495,4.291667,7
3233,Netherlands,Zutphen,52.138333,6.2013888,7
3439,Estonia,Audru,58.4086111,24.373888,7
3454,Estonia,Uuemoisa,58.9394444,23.5894451,7
3583,Finland,Vasa,63.0960013,21.6157722,7
3686,France,Toulon,43.1166667,5.9333334,7
4361,Haiti,Gonaives,19.45,-72.6833344,7
4398,Haiti,Grand Goave,18.4288889,-72.7705536,7
4434,Haiti,Derac,19.65,-71.8166656,7
4555,Honduras,Agua Fria,13.4688889,-87.5511093,7
4878,Indonesia,Pekalongan,-6.8833333,109.6666641,7
4881,Indonesia,Tegal,-6.8666667,109.1333313,7
5064,Iraq,Al Faw,29.9680556,48.4672203,7
5102,Iraq,Nahiyat al Fuhud,30.9697222,46.7227783,7
5354,Italy,Barletta,41.311834,16.2907696,7
5367,Italy,Lucca,43.8435654,10.5058479,7
5369,Italy,Treviso,45.6666667,12.2449999,7
5505,Japan,Funabashi,35.6930556,139.9833374,7
5546,Japan,Miyazaki,31.9,131.4333344,7
5572,Japan,Kurume,33.3166667,130.5166626,7
5848,Kuwait,As Salimiyah,29.3338889,48.0761108,7
5926,Latvia,Tireli,56.8416667,23.5874996,7
5958,Latvia,Plienciems,57.0827778,23.2641659,7
5962,Latvia,Klapkalnciems,57.0408333,23.3636112,7
5999,Libya,Sabratah,32.7919444,12.4847221,7
6060,Lithuania,Palanga,55.9175,21.0686111,7
6353,Malawi,Mahanoro,-19.9,48.7999992,7
6490,Maldives,Teluk Intan,4.0333333,101.0166702,7
6815,Moldova,Causeni,46.6441667,29.4138889,7
7020,New Zealand,Christchurch,-43.5333333,172.6333313,7
7614,Panama,Rio Alejandro,9.3763889,-79.7911148,7
7999,Philippines,Mati,6.9527778,126.2158356,7
8131,Portugal,Cascais,38.6979034,-9.421463,7
8295,Romania,Oltenita,44.0833333,26.6333332,7
8637,Senegal,Diofior,14.1833333,-16.666666,7
8779,Somalia,Qandala,11.4711111,49.8738899,7
8801,South Africa,Cape Town,-33.9166667,18.416666,7
9065,Spain,Torrevieja,37.9833333,-0.6833333,7
9109,Sri Lanka,Welisara,7.0333333,79.9000015,7
9305,Sweden,Landskrona,55.8707964,12.830164,7
9318,Sweden,Angelholm,56.2428014,12.8621902,7
9844,Tunisia,Houmt Souk,33.8747222,10.8591671,7
10114,Ukraine,Yevpatoriya,45.1972222,33.355835,7
10262,Venezuela,Ciudad Guayana,8.3533333,-62.6527786,7
10360,Vietnam,Da Nang,16.0677778,108.2208328,7
10424,Yemen,`Adan,12.7794444,45.0366669,7
8917,Korea,Cheju,33.5097222,126.5219421,8
8966,Korea,Tangjin,36.8944444,126.6297226,8
8910,Korea,Ansan,37.3236111,126.8219452,8
8967,Korea,Puyo,36.2819444,126.9124985,8
8936,Korea,Kwangyang,34.9752778,127.5891647,8
3864,Gambia,Jifarong,13.3,-15.8666668,8
3877,Gambia,Bati Ndar,13.7,-15.1999998,8
3852,Gambia,Daba Kunda,13.3166667,-14.3000002,8
3894,Gambia,Tuba-Wuli,13.4333333,-14.25,8
3869,Gambia,Sanunding,13.2833333,-14.1166668,8
138,Albania,Orikum,40.3252778,19.4713898,8
287,United States,Philadelphia,39.952335,-75.1637878,8
631,Australia,Coffs Harbour,-30.3,153.1333313,8
934,Bangladesh,Pabna,24,89.25,8
985,Bangladesh,Chhagalnaiya,23.03,91.5069427,8
988,Bangladesh,Bheramara,24.0333333,88.9666672,8
1148,Belgium,Hoboken,51.1666667,4.3499999,8
1174,Belgium,Kapellen,51.3166667,4.4333334,8
1504,Brazil,Niteroi,-22.8833333,-43.103611,8
1554,Brazil,Praia Grande,-24.0058333,-46.4027786,8
1783,Myanmar,Hinthada,17.6333333,95.4666672,8
1810,Myanmar,Kyaiklat,16.4333333,95.7333298,8
1839,Cambodia,Phumi Veal Sre,10.9833333,104.7833328,8
2194,Chile,Las Animas,-39.8086679,-73.2182083,8
2247,China,Tianjin,39.1422222,117.1766663,8
2317,China,Nantong,32.0302778,120.8747253,8
2327,China,Haikou,20.0458333,110.3416672,8
2440,Comoros,Fomboni,-12.28,43.7425003,8
2823,Cuba,Niquero,20.0430556,-77.5827789,8
3387,Estonia,Haapsalu,58.9430556,23.5413895,8
3782,Gabon,Gamba,-2.65,10,8
4459,Honduras,La Ceiba,15.7833333,-86.8000031,8
4825,India,Nangi,22.5083333,88.2152786,8
4880,Indonesia,Banda Aceh,5.5616667,95.3258362,8
5060,Iraq,As Samawah,31.3094444,45.2802773,8
5068,Iraq,Al Hayy,32.1769444,46.0447235,8
5099,Iraq,Ash Shinafiyah,31.5822222,44.6455574,8
5112,Ireland,Port Lairge,52.2583333,-7.1119442,8
5313,Italy,Bari,41.117734,16.8511848,8
5428,Jamaica,Lionel Town,17.8,-77.2333298,8
5520,Japan,Hirakata,34.8135214,135.6491394,8
5545,Japan,Koshigaya,35.8833333,139.7833405,8
5574,Japan,Chigasaki,35.3261111,139.4038849,8
5582,Japan,Kasukabe,35.9763889,139.7536163,8
5799,Kenya,Sawasawa,-4.4666667,39.4833336,8
5861,Kuwait,Ad Dasmah,29.365,48.0013885,8
5912,Latvia,Ozolnieki,56.6863889,23.7877769,8
5948,Latvia,Piltene,57.2166667,21.666666,8
6042,Lithuania,Klaipeda,55.7172222,21.1175003,8
6111,Lithuania,Rusne,55.2963889,21.3758335,8
6472,Maldives,Butterworth,5.4166667,100.4000015,8
6504,Maldives,Nibung Tebal,5.1666667,100.4833298,8
6803,Moldova,Tiraspol,46.8402778,29.6433334,8
7022,New Zealand,North Shore,-36.8,174.75,8
7096,New Zealand,Brightwater,-41.3833333,173.1166687,8
7134,Nicaragua,Puerto Cabezas,14.0333333,-83.3833313,8
7422,Norway,Sungam-nodongjagu,41.6697222,129.6688843,8
7606,Panama,Puerto Pilon,9.3644444,-79.793335,8
7823,Peru,Tumbes,-3.5666667,-80.441391,8
7909,Philippines,Cagayan de Oro,8.4822222,124.6472244,8
7940,Philippines,Puerto Princesa,9.7391667,118.7352753,8
7955,Philippines,Hagonoy,14.8325,120.7333298,8
7964,Philippines,Roxas City,11.5852778,122.7511139,8
7975,Philippines,Calumpit,14.9163889,120.765831,8
7986,Philippines,Marilao,14.7577778,120.9483337,8
7992,Philippines,Daet,14.1127778,122.9558334,8
8141,Portugal,Olhao,37.0333333,-7.8333335,8
8379,Russia,Novorossiysk,44.7238889,37.7708321,8
8394,Russia,Severodvinsk,64.5722222,39.8474998,8
8428,El Salvador,Acajutla,13.5927778,-89.8274994,8
9284,Sweden,Taby,59.443897,18.0687218,8
9291,Sweden,Upplands-Vasby,59.5204002,17.9082718,8
9334,Sweden,Ystad,55.4296588,13.8204145,8
9716,Thailand,Changwat Rayong,12.6833333,101.2833328,8
9717,Thailand,Khlong Luang,14.0666667,100.6500015,8
9721,Thailand,Ban Phattha Ya,12.9333333,100.8833313,8
9752,Thailand,Cha-am,12.8,99.9666672,8
9768,Thailand,Nong Khae,14.3333333,100.8666687,8
9779,Thailand,Photharam,13.6833333,99.8499985,8
9841,Tunisia,Al Marsa,36.8781788,10.3246593,8
9908,Tunisia,Sidi Bou Ali,35.9566667,10.4730558,8
10173,Uruguay,Rocha,-34.4833333,-54.3333321,8
10367,Vietnam,Quy Nhon,13.7666667,109.2333298,8
8969,Korea,Songhwan,36.9155556,127.1313858,9
8965,Korea,Hunghae,36.1125,129.3522186,9
3893,Gambia,Cha Kunda,13.3833333,-14.5333328,9
397,Angola,Namibe,-15.1961111,12.1522226,9
504,Argentina,Dolores,-36.3333333,-57.6666679,9
916,Bangladesh,Khulna,22.8,89.5500031,9
924,Bangladesh,Sylhet,24.8966667,91.871666,9
948,Bangladesh,Sarishabari,24.7333333,89.8333359,9
989,Bangladesh,Phultala,22.7,89.5166702,9
997,Bangladesh,Fatikchari,22.6883333,91.7908325,9
1205,Belgium,Zedelgem,51.15,3.1333332,9
1579,United Kingdom,Belfast,54.5833333,-5.9333334,9
1595,United Kingdom,Sunderland,54.9046457,-1.3822174,9
1596,United Kingdom,Norwich,52.6278273,1.2983394,9
2001,Canada,Chilliwack,49.1746816,-121.9442673,9
2305,China,Ningbo,29.875,121.5419464,9
2346,Colombi,Santa Marta,11.2472222,-74.2016678,9
2769,Cuba,Jaguey Grande,22.5269444,-81.1286087,9
2809,Cuba,Rio Cauto,20.5602778,-76.9161148,9
2831,Cuba,Media Luna,20.1419444,-77.4349976,9
3043,Denmark,Horsens,55.8606582,9.850337,9
3257,Ecuador,Propicia,0.9333333,-79.6833344,9
3333,Ecuador,Puerto Bolivar,-3.2666667,-79.9833298,9
3643,Finland,Kempele,64.9166667,25.5,9
3680,France,Bordeaux,44.8333333,-0.5666667,9
4409,Haiti,Ferrier,19.6166667,-71.7833328,9
4453,Haiti,Quartier Morin,19.6966667,-72.1569443,9
4707,Iceland,Hvanneyri,64.5666667,-21.7666664,9
4766,India,Thane,19.2,72.9666672,9
4987,Iran,Bandar-e Bushehr,28.9684,50.838501,9
5033,Iran,Chalus,36.6547222,51.4219437,9
5076,Iraq,Ar Rumaythah,31.5261111,45.2063904,9
5106,Ireland,Dublin,53.3330556,-6.248889,9
5143,Ireland,Beal An Atha,54.1166667,-9.166667,9
5333,Italy,Ferrara,44.826777,11.6207132,9
5338,Italy,Pescara,42.460244,14.210207,9
5558,Japan,Hakodate,41.7758333,140.7366638,9
5851,Kuwait,Al Fuhayhil,29.0825,48.1302795,9
5862,Kuwait,Ash Shamiyah,29.3472222,47.9616661,9
5866,Latvia,Riga,56.95,24.1000004,9
6447,Maldives,Kota Kinabalu,5.9833333,116.0666656,9
6464,Maldives,Sekudai,1.5333333,103.6666641,9
6531,Maldives,Limbang,4.75,115,9
6730,Mexico,Villahermosa,17.9833333,-92.9166641,9
6934,Morocco,Azemmour,33.28,-8.3400002,9
7035,New Zealand,Invercargill,-46.4,168.3500061,9
7184,Nicaragua,El Realejo,12.5333333,-87.1666641,9
7371,Norway,Najin,42.2488889,130.3002777,9
7385,Norway,Anbyon-up,39.0425,127.5238876,9
7444,Oman,Shinas,24.7433333,56.4658318,9
7698,Papua New Guinea,Namatanai,-3.6666667,152.4333344,9
7934,Philippines,Malolos,14.8419444,120.8116684,9
7977,Philippines,Arayat,15.1508333,120.773056,9
7993,Philippines,Apalit,14.9533333,120.7699966,9
8262,Romania,Medgidia,44.25,28.2833328,9
8534,Samoa,Salepoua`e,-13.8,-171.8500061,9
9127,Sri Lanka,Weligama,5.9666667,80.4166641,9
9229,Suriname,Lelydorp,5.7,-55.2333336,9
9312,Sweden,Trelleborg,55.375136,13.1569109,9
9358,Sweden,Hoganas,56.1997096,12.5579519,9
9724,Thailand,Phuket,7.8833333,98.4000015,9
9744,Thailand,Klaeng,12.7833333,101.6500015,9
9897,Tunisia,Bin Qirdan,33.1333333,11.2166672,9
10194,Uruguay,Nueva Palmira,-33.8833333,-58.4166679,9
10197,Uruguay,Colonia Nicolich,-34.8130556,-56.0447235,9
10399,Vietnam,Bim Son,20.0780556,105.8602753,9
8957,Korea,Munsan,37.8594444,126.7850037,10
8920,Korea,Iksan,35.9438889,126.9544449,10
8939,Korea,Sinhyon,34.8825,128.6266632,10
3819,Gambia,Jarreng,13.6166667,-15.1833334,10
94,Albania,Kavaje,41.1855556,19.5569439,10
234,Algeria,Besbes,36.7022222,7.8472223,10
306,United States,South Boston,42.3334312,-71.0494919,10
453,Argentina,Trelew,-43.2489539,-65.3050537,10
679,Australia,Murray Bridge,-35.1166667,139.2666626,10
942,Bangladesh,Kishorganj,24.4333333,90.7666702,10
946,Bangladesh,Laksham,23.2472222,91.1425018,10
994,Bangladesh,Bajitpur,24.2166667,90.9499969,10
999,Bangladesh,Bandarban,22.1980556,92.2197189,10
1169,Belgium,Oudenaarde,50.85,3.5999999,10
1170,Belgium,Deinze,50.9833333,3.5333333,10
1582,United Kingdom,Plymouth,50.3715254,-4.1430473,10
2159,Chile,Valdivia,-39.8142226,-73.2458954,10
2253,China,Guangzhou,23.1166667,113.25,10
2352,Colombi,Soledad,10.9172222,-74.7666702,10
2663,Croatia,Metkovic,43.0541667,17.6483326,10
2753,Cuba,Moa,20.6569444,-74.9402771,10
2834,Cuba,Guane,22.2025,-84.0875015,10
3036,Denmark,Odense,55.3959381,10.3883133,10
3040,Denmark,Randers,56.4666667,10.0500002,10
3193,Netherlands,Assen,52.996667,6.5625,10
3197,Netherlands,Katwijk,51.75,5.8708329,10
3199,Netherlands,Hardenberg,52.575833,6.6194439,10
3232,Netherlands,Coevorden,52.6625,6.7416668,10
3332,Ecuador,Puerto Ayora,-0.75,-90.3166656,10
3379,Estonia,Parnu,58.3747222,24.5136108,10
3456,Estonia,Sauga,58.4238889,24.5022221,10
3467,Estonia,Taebla,58.9538889,23.7522221,10
3633,Finland,Uusikaupunki,60.8,21.416666,10
3738,France,Quimper,48,-4.0999999,10
4021,Germany,Oldenburg,53.1666667,8.1999998,10
4228,Greece,Menemeni,40.6569444,22.8999996,10
4421,Haiti,Plaine du Nord,19.6833333,-72.2666702,10
4718,Iceland,Hafnir,63.9333333,-22.6833324,10
5190,Ireland,Clonakilty,51.6230556,-8.8705559,10
5381,Italy,Grosseto,42.771425,11.107935,10
5390,Italy,Castellammare di Stabia,40.715509,14.4891367,10
5447,Jamaica,Rocky Point,17.7666667,-77.25,10
5490,Japan,Fukuoka,33.5833333,130.3999939,10
5535,Japan,Suita,34.761429,135.5156708,10
5541,Japan,Kochi,33.55,133.5500031,10
5559,Japan,Yao,34.6166667,135.6000061,10
5561,Japan,Tokushima,34.0666667,134.5666656,10
5995,Libya,Ajdabiya,30.7591667,20.2230549,10
6063,Lithuania,Gargzdai,55.7127778,21.4033337,10
6703,Mexico,Merida,20.9666667,-89.6166687,10
6759,Mexico,Ciudad Madero,22.2666667,-97.8333359,10
6963,Mozambique,Xai-Xai,-25.0519444,33.644165,10
7066,New Zealand,Opotiki,-38.0833333,177.2833405,10
7075,New Zealand,Woodend,-43.3166667,172.6666718,10
7077,New Zealand,Raglan,-37.8,174.8833313,10
7102,New Zealand,Tairua,-37.0166667,175.8500061,10
7607,Panama,Nata,8.3333333,-80.5166702,10
7661,Panama,Santa Maria,8.1166667,-80.6666641,10
8031,Poland,Elblag,54.1666667,19.3833332,10
8426,El Salvador,La Union,13.3369444,-87.8438873,10
8986,Spain,Valencia,39.4697524,-0.3773868,10
9236,Suriname,Groningen,5.8,-55.4666672,10
9264,Sweden,Malmoe,55.6058691,13.0007315,10
9265,Sweden,Uppsala,59.8585015,17.6454277,10
9283,Sweden,Sollentuna,59.4280429,17.9509315,10
9309,Sweden,Akersberga,59.4794352,18.2996712,10
9329,Sweden,Boden,65.8251808,21.6886425,10
9492,Syria,Baniyas,35.1833333,35.9500008,10
9713,Thailand,Ban Rangsit,14.0166667,100.7333298,10
9715,Thailand,Nakhon Si Thammarat,8.4333333,99.9666672,10
9746,Thailand,Suphan Buri,14.4666667,100.1166687,10
9985,Turkey,Alanya,36.5525,32.0024986,10
9997,Turkey,Bafra,41.5677778,35.9069443,10
10370,Vietnam,Phan Thiet,10.9333333,108.0999985,10
10384,Vietnam,Yen Vinh,18.6666667,105.6666641,10
8945,Korea,Yangsan,35.3386111,129.0386047,11
3891,Gambia,Mara Magai,13.5166667,-14.916667,11
304,United States,Boston,42.3584308,-71.0597763,11
310,United States,Washington,38.8951118,-77.0363693,11
424,Argentina,Rosario,-32.9511111,-60.6663895,11
674,Australia,Roebourne,-20.7833333,117.1333313,11
937,Bangladesh,Faridpur,23.6,89.8333359,11
977,Bangladesh,Jhikergacha,23.1166667,89.1166687,11
1142,Belgium,Waregem,50.8833333,3.4166667,11
1778,Myanmar,Myeik,12.4333333,98.5999985,11
1796,Myanmar,Nyaunglebin,17.95,96.7333298,11
1813,Myanmar,Kyaikto,17.3,97.0166702,11
1846,Cambodia,Kampong Thum,12.7,104.9000015,11
2482,Comoros,Hantsindzi,-11.4291667,43.4022217,11
2764,Cuba,Sagua la Grande,22.8066667,-80.0755539,11
3060,Denmark,Albertslund,55.656914,12.3638144,11
3068,Denmark,Haderslev,55.2537706,9.4898233,11
3101,Denmark,Odder,55.9731258,10.152998,11
3128,Denmark,Bjerringbro,56.3833333,9.666667,11
3226,Netherlands,Hoogeveen,52.7225,6.4763889,11
3403,Estonia,Sindi,58.4005556,24.6674995,11
3438,Estonia,Lihula,58.6813889,23.8452778,11
4227,Greece,Peraia,40.5002778,22.9249992,11
4660,Iceland,Gardabar,64.0833333,-21.9833336,11
4696,Iceland,Holmavik,65.7166667,-21.6833324,11
5319,Italy,Padova,45.415194,11.8818083,11
5872,Latvia,Ventspils,57.3894444,21.5605564,11
5906,Latvia,Balozi,56.8761111,24.1186104,11
5934,Latvia,Roja,57.5,22.8166676,11
5953,Latvia,Kolka,57.75,22.583334,11
5998,Libya,Tobruk,32.0836111,23.9763889,11
6058,Lithuania,Silute,55.3488889,21.4830551,11
6534,Maldives,Jenjarum,2.8833333,101.5,11
6800,Micronesia,Tamil,9.5166667,138.1499939,11
7030,New Zealand,Hastings,-39.6381,176.8491821,11
7148,Nicaragua,Corinto,12.4833333,-87.1666641,11
7357,Norway,Hamhung,39.9183333,127.5363922,11
7374,Norway,Chaeryong-up,38.3991667,125.6155548,11
7382,Norway,Kyongsong,41.5877778,129.6061096,11
7409,Norway,Sinanju,39.5980556,125.609726,11
7557,Palau,Ngermechau,7.5513889,134.6330566,11
7579,Panama,Nuevo Arraijan,8.9166667,-79.7166672,11
7700,Papua New Guinea,Kandrian,-6.2166667,149.5500031,11
7831,Peru,Catacaos,-5.2666667,-80.6833344,11
7951,Philippines,Muricay,7.8263889,123.4797211,11
7996,Philippines,Guiguinto,14.8333333,120.8833313,11
8181,Portugal,Alges,38.7,-9.2333336,11
8250,Romania,Giurgiu,43.8833333,25.9666672,11
8611,Senegal,Richard Toll,16.4666667,-15.6833334,11
8640,Senegal,Marsassoum,12.8275,-15.9805555,11
8760,Somalia,Jamaame,0.0722222,42.7505569,11
8998,Spain,Gijon,43.5411111,-5.6644444,11
9238,Suriname,Onverwacht,5.5833333,-55.1833344,11
9743,Thailand,Chumphon,10.5,99.1666641,11
9826,Tonga,`Ohonua,-21.3333333,-174.9499969,11
10175,Uruguay,Pando,-34.7166667,-55.9500008,11
10276,Venezuela,Cabimas,10.4019444,-71.4461136,11
8972,Korea,Kanghwa,37.7472222,126.4855576,12
8949,Korea,Poryong,36.3466667,126.6047211,12
3880,Gambia,Janneh Kunda,13.3802778,-16.1383324,12
3886,Gambia,Madina,13.7,-14.8833332,12
3815,Gambia,Diabugu,13.3833333,-14.3999996,12
266,Algeria,Kerkera,36.9291667,6.5855556,12
372,United States,Modesto,37.6390972,-120.9968796,12
488,Argentina,Viedma,-40.8,-63,12
918,Bangladesh,Comilla,23.4577778,91.2044449,12
931,Bangladesh,Jamalpur,24.9166667,89.9333344,12
1177,Belgium,Temse,51.1333333,4.2166667,12
1204,Belgium,Merelbeke,51,3.75,12
1491,Brazil,Jaboatao dos Guararapes,-8.1127778,-35.0147209,12
1506,Brazil,Ananindeua,-1.3655556,-48.3722229,12
1532,Brazil,Vitoria,-20.3194444,-40.3377762,12
1657,United Kingdom,Chester,53.2,-2.9166667,12
1774,Myanmar,Pathein,16.7833333,94.7333298,12
2041,Canada,New Glasgow,45.5834447,-62.6486359,12
2152,Chile,Arica,-18.4833333,-70.3333359,12
2254,China,Nanjing,32.0616667,118.7777786,12
2325,China,Foshan,23.0333333,113.1166687,12
2382,Colombi,Cienaga,11.0094444,-74.2541656,12
2478,Comoros,Kavani,-12.1919444,44.2694435,12
2624,Costa Rica,Jaco,9.6166667,-84.6333313,12
2832,Cuba,Abreus,22.2775,-80.5674973,12
3095,Denmark,Bronderslev,57.2702091,9.9410172,12
3115,Denmark,Hundested,55.9666667,11.8666668,12
3160,Netherlands,Apeldoorn,52.21,5.9694438,12
3183,Netherlands,Almelo,52.356667,6.6624999,12
3241,Netherlands,Epe,52.3475,5.9833331,12
3248,Ecuador,Machala,-3.2666667,-79.9666672,12
3426,Estonia,Paikuse,58.3791667,24.6344452,12
3617,Finland,Tornio,65.85,24.1833324,12
3629,Finland,Haukipudas,65.1833333,25.3500004,12
4743,India,Mumbai,19.01441,72.8479385,12
4777,India,Haora,22.5891667,88.3102798,12
4787,India,Vijayawada,16.5166667,80.6166687,12
4822,India,Bhatpara,22.8713889,88.4088898,12
4961,Iran,Abadan,30.3525,48.2958336,12
5105,Iraq,`Ali al Gharbi,32.4641667,46.6786118,12
5357,Italy,Pesaro,43.903566,12.8902559,12
5391,Italy,Massa,44.022045,10.1140928,12
5451,Jamaica,Dalvey,17.9166667,-76.2333298,12
5503,Japan,Hamamatsu,34.7,137.7333374,12
5552,Japan,Yokkaichi,34.9666667,136.6166687,12
5852,Kuwait,Kuwait,29.3697222,47.9783325,12
5854,Kuwait,Salwa,29.2958333,48.0786095,12
5869,Latvia,Liepaja,56.5166667,21.0166664,12
6349,Malawi,Fort Dauphin,-25.0318335,46.9998131,12
6529,Maldives,Yong Peng,2.0166667,103.0666656,12
6532,Maldives,Sungai Udang,2.2666667,102.1500015,12
6915,Morocco,Essaouira,31.51,-9.7600002,12
7370,Norway,Hongwon,40.0252778,127.9558334,12
7376,Norway,Uiju,40.1994444,124.5316696,12
7413,Norway,Yonggang-up,38.8561111,125.4244461,12
7438,Oman,Saham,24.1722222,56.8886108,12
7537,Pakistan,Tando Muhammad Khan,25.1333333,68.5333328,12
7582,Panama,Puerto Armuelles,8.2833333,-82.8666687,12
7684,Papua New Guinea,Rabaul,-4.2,152.1833344,12
7937,Philippines,Meycauayan,14.7369444,120.9608307,12
7946,Philippines,Kabankalan,9.9888889,122.8122253,12
7984,Philippines,Binonga,10.7730556,122.9827805,12
8126,Portugal,Faro,37.0166667,-7.9333334,12
8208,Qatar,Al Wukayr,25.1508333,51.5377769,12
8628,Senegal,Ndioum,16.5166667,-14.6499996,12
8642,Senegal,Golere,16.25,-14.1000004,12
8655,Slovenia,Koper,45.5469444,13.7294445,12
8750,Solomon Islands,Honiara,-9.4333333,159.9499969,12
10229,Uruguay,Solis de Mataojo,-34.6,-55.4833336,12
10409,Vietnam,Ninh Binh,20.2538889,105.9749985,12
8955,Korea,Kimje,35.8016667,126.8888855,13
3847,Gambia,Sukuta,13.6166667,-14.916667,13
3814,Gambia,Koina,13.4833333,-13.8666668,13
422,Argentina,Buenos Aires,-34.5761256,-58.4088135,13
460,Argentina,Rio Gallegos,-51.6333333,-69.2166672,13
813,Azerbaijan,Ali Bayramli,39.9319444,48.9202766,13
851,Azerbaijan,Ucar,40.5183333,47.6541672,13
908,Bahrain,Al Muharraq,26.2572222,50.6119461,13
930,Bangladesh,Tangail,24.25,89.9166641,13
932,Bangladesh,Sirajganj,24.45,89.7166672,13
958,Bangladesh,Moulvi Bazar,24.4833333,91.7833328,13
996,Bangladesh,Gafargaon,24.4333333,90.5666656,13
1120,Belgium,Kortrijk,50.8280326,3.2648706,13
1123,Belgium,Sint-Niklaas,51.1666667,4.1333332,13
1179,Belgium,Herentals,51.1833333,4.8333335,13
1184,Belgium,Mortsel,51.1666667,4.4666667,13
1194,Belgium,Wetteren,51,3.8833332,13
1198,Belgium,Westerlo,51.0833333,4.9166665,13
1770,Myanmar,Rangoon,16.8052778,96.1561127,13
1811,Myanmar,Maubin,16.7333333,95.6500015,13
1817,Myanmar,Twante,16.7166667,95.9333344,13
2052,Cape Verde,Santa Maria,16.6,-22.8999996,13
2062,Cape Verde,Pombas,17.15,-25.0166664,13
2279,China,Fuzhou,26.0613889,119.3061142,13
2289,China,Baoding,38.8511111,115.4902802,13
2321,China,Zhenjiang,32.2091667,119.434166,13
3150,Netherlands,Tilburg,51.5555149,5.0913048,13
3154,Netherlands,Nijmegen,51.8425,5.852778,13
3157,Netherlands,Arnhem,51.98,5.9111109,13
3202,Netherlands,Doetinchem,51.965,6.2888889,13
3216,Netherlands,Soest,52.173333,5.291667,13
4168,Greece,,38.4636111,23.5994453,13
4190,Greece,Ayia Varvara,37.9833333,23.666666,13
4374,Haiti,Saint-Louis du Nord,19.9333333,-72.7166672,13
4375,Haiti,Leogane,18.5108333,-72.6338882,13
4400,Haiti,Le Borgne,19.85,-72.5333328,13
4492,Honduras,Baracoa,15.7666667,-87.8499985,13
4751,India,Surat,21.1666667,72.8333359,13
4850,Indonesia,Makassar,-5.1463889,119.4386139,13
5097,Iraq,Al Mishkhab,31.8016667,44.4902763,13
5421,Jamaica,Port Maria,18.3666667,-76.9000015,13
5914,Latvia,Saulkrasti,57.2636111,24.4180565,13
5945,Latvia,Ainazi,57.8636111,24.3577785,13
6482,Maldives,Senai,1.6,103.6500015,13
6528,Maldives,Permatang Kuching,5.4833333,100.4000015,13
6940,Morocco,Sidi Yahia el Gharb,34.3,-6.3099999,13
7076,New Zealand,Picton,-41.2882693,174.0101776,13
7356,Norway,Pyongyang,39.0194444,125.7547226,13
7432,Oman,As Sib,23.6802778,58.1824989,13
7459,Pakistan,Hyderabad,25.3666667,68.3666687,13
7924,Philippines,Batangas,13.7594444,121.0599976,13
7930,Philippines,Santa Rosa,14.3122222,121.1113892,13
7960,Philippines,Dumaguete,9.3102778,123.3080521,13
7983,Philippines,Mariveles,14.4336111,120.4852753,13
7988,Philippines,Sorsogon,12.9738889,123.9933319,13
8164,Portugal,Monte Estoril,38.7027933,-9.4160557,13
8992,Spain,Palma,39.5693908,2.6502371,13
9004,Spain,Sant Marti,41.4181438,2.1993256,13
9056,Spain,Cornella de Llobregat,41.35,2.0833333,13
9093,Sri Lanka,Galle,6.0536111,80.2116699,13
9350,Sweden,Staffanstorp,55.6440561,13.2081518,13
9732,Thailand,Sattahip,12.6666667,100.9000015,13
9765,Thailand,Tha Yang,12.9577209,99.9055481,13
9790,Thailand,Prachuap Khiri Khan,11.8209811,99.7840958,13
9828,Tunisia,Tunis,36.8027778,10.1797218,13
9829,Tunisia,Sfax,34.7405556,10.7602777,13
9854,Tunisia,Zouila,35.5005556,11.0605555,13
9879,Tunisia,Akouda,35.8708333,10.5683336,13
9890,Tunisia,Al Baqalitah,35.6166667,11,13
10405,Vietnam,Bac Ninh,21.1833333,106.0500031,13
10413,Vietnam,Hoi An,15.8794444,108.3349991,13
10416,Vietnam,Dong Hoi,17.4833333,106.5999985,13
8921,Korea,Kunsan,35.9786111,126.7113876,14
8975,Korea,Yonmu,36.1294444,127.0999985,14
356,United States,Saint Petersburg,27.7708606,-82.6792679,14
361,United States,Jersey City,40.7281575,-74.0776443,14
392,Angola,Lobito,-12.3480556,13.5455561,14
835,Azerbaijan,Bina,40.4538889,50.0763893,14
929,Bangladesh,Par Naogaon,24.8,88.9499969,14
936,Bangladesh,Satkhira,22.7166667,89.0999985,14
938,Bangladesh,Sherpur,25.0166667,90.0166702,14
960,Bangladesh,Narail,23.1666667,89.5,14
982,Bangladesh,Kalia,23.05,89.6333313,14
1002,Bangladesh,Kesabpur,22.9166667,89.2166672,14
1178,Belgium,Harelbeke,50.85,3.3,14
1606,United Kingdom,York,53.9666667,-1.0833333,14
1881,Cameroon,Kribi,2.95,9.916667,14
2195,Chile,Castro,-42.4720969,-73.7731934,14
2330,China,Jinzhou,41.1077778,121.1416702,14
2531,Comoros,Hamavouna,-12.3730556,43.8383331,14
2756,Cuba,Guira de Melena,22.7905556,-82.5052795,14
2805,Cuba,Campechuela,20.2341667,-77.2788925,14
3039,Denmark,Esbjerg,55.4666667,8.4499998,14
3064,Denmark,Sonderborg,54.9092625,9.8073654,14
3218,Netherlands,Rheden,52.005,6.0291672,14
3280,Ecuador,Playas,-2.6333333,-80.3833313,14
3317,Ecuador,Balao,-2.9166667,-79.8166656,14
3429,Estonia,Aseri,59.4505556,26.8675003,14
3592,Finland,Rauma,61.1333333,21.5,14
3594,Finland,Karleby,63.8333333,23.1166668,14
3610,Finland,Raisio,60.4833333,22.1833324,14
3637,Finland,Lieto,60.5,22.4500008,14
3930,Georgia,Khobi,42.3180556,41.898056,14
4232,Greece,Nea Makri,38.0833333,23.9833336,14
4354,Guyana,Mabaruma,8.2,-59.7833328,14
4420,Haiti,Belle-Anse,18.2372222,-72.0655594,14
4678,Iceland,Stykkisholmur,65.0666667,-22.7333336,14
4765,India,Kalyan,19.25,73.1500015,14
4864,Indonesia,Manado,1.5016667,124.8441696,14
4910,Indonesia,Perbaungan,3.5666667,98.9499969,14
5305,Italy,Rome,41.9,12.4833336,14
5486,Japan,Nagoya,35.1814728,136.9064026,14
5513,Japan,Ichikawa,35.7197222,139.9247284,14
5518,Japan,Yokosuka,35.2836111,139.6672211,14
5524,Japan,Toyonaka,34.7824391,135.4693146,14
5557,Japan,Ichinomiya,35.3,136.8000031,14
5868,Latvia,Vec-Liepaja,56.5333333,21.0166664,14
6484,Maldives,Segamat,2.5,102.8166656,14
6510,Maldives,Air Keruh,2.2666667,102.2833328,14
6957,Mozambique,Beira,-19.8436111,34.8388901,14
7082,New Zealand,Lincoln,-43.65,172.4833374,14
7366,Norway,Songnim,38.7541667,125.6449966,14
7424,Norway,Kwaksan,39.6875,125.0827789,14
7454,Pakistan,Karachi,24.8666667,67.0500031,14
7479,Pakistan,Mirpur Khas,25.5333333,69,14
7618,Panama,Margarita,9.3313889,-79.8888855,14
7637,Panama,Chame,8.5833333,-79.8833313,14
7824,Peru,Talara,-4.5772222,-81.2719421,14
7953,Philippines,Cadiz Viejo,10.9505556,123.285553,14
7968,Philippines,Bocaue,14.7983333,120.9261093,14
8205,Qatar,Al Wakrah,25.1677778,51.606945,14
8248,Romania,Calarasi,44.2,27.333334,14
8575,Samoa,Aopo,-13.4833333,-172.5,14
8603,Senegal,Dakar,14.6951119,-17.4438858,14
8616,Senegal,Pourham,14.35,-16.416666,14
8629,Senegal,Khombole,14.7666667,-16.7000008,14
8639,Senegal,Diawara,15.0333333,-12.5500002,14
9125,Sri Lanka,Eravur,7.7666667,81.5999985,14
9134,Sri Lanka,Gampaha,7.0916667,79.9941635,14
9330,Sweden,Karlshamn,56.1706024,14.8618841,14
9352,Sweden,Kaevlinge,55.7918786,13.1102085,14
9726,Thailand,Phra Nakhon Si Ayutthaya,14.35,100.5500031,14
9874,Tunisia,Chebba,35.2372222,11.1149998,14
9944,Turkey,Samsun,41.2866667,36.3300018,14
10128,Ukraine,Yalta,44.5,34.1666679,14
10396,Vietnam,Tam Ky,15.5666667,108.4833298,14
10412,Vietnam,Quang Ngai,15.1166667,108.8000031,14
8933,Korea,Asan,36.7836111,127.0041656,15
8924,Korea,Kangnung,37.7555556,128.8961182,15
3860,Gambia,Pateh Sam,13.6166667,-15.0666666,15
3890,Gambia,Dobbo,13.4666667,-14.6333332,15
3825,Gambia,Bakadagy,13.3,-14.3833332,15
286,United States,Houston,29.7632836,-95.3632736,15
467,Argentina,Gualeguaychu,-33.0102778,-58.5141678,15
499,Argentina,Gualeguay,-33.1444444,-59.3291664,15
612,Australia,Brisbane,-27.4679357,153.0280914,15
817,Azerbaijan,Yevlax,40.6172222,47.1500015,15
829,Azerbaijan,Imisli,39.8697222,48.0600014,15
847,Azerbaijan,Bilasuvar,39.4583333,48.5449982,15
923,Bangladesh,Jessore,23.1666667,89.2166672,15
1156,Belgium,Menen,50.8,3.1166668,15
1175,Belgium,Izegem,50.9166667,3.2,15
1656,United Kingdom,Birkenhead,53.4,-3.0333333,15
1834,Cambodia,Siemreab,13.3666667,103.8499985,15
1982,Canada,Moncton,46.1159434,-64.8018646,15
2409,Colombi,Cerete,8.8855556,-75.796669,15
2799,Cuba,Pedro Betancourt,22.7272222,-81.2900009,15
2820,Cuba,Bahia Honda,22.9036111,-83.1591644,15
3112,Denmark,Lystrup,56.2333333,10.25,15
3624,Finland,Pietarsaari,63.6666667,22.7000008,15
3723,France,La Rochelle,46.1666667,-1.15,15
4532,Honduras,Brus Laguna,15.75,-84.4833298,15
5171,Ireland,Carrick-on-Suir,52.3491667,-7.4130554,15
5397,Italy,Savona,44.309048,8.4771538,15
5579,Japan,Ageo,35.9697222,139.5886078,15
5989,Libya,Banghazi,32.1166667,20.0666676,15
6382,Malawi,Farafangana,-22.8166667,47.8333321,15
6418,Malaysia,Nsanje,-16.9166667,35.2666664,15
6479,Maldives,Banting,2.8166667,101.5,15
6538,Maldives,Pekan Nanas,1.5166667,103.5166702,15
6631,Mauritius,Poste de Flacq,-20.1630556,57.7305565,15
6754,Mexico,Los Mochis,25.7666667,-108.9666672,15
6805,Moldova,Tighina,46.8305556,29.4711113,15
6834,Moldova,Dnestrovsc,46.6222222,29.9133339,15
7027,New Zealand,Lower Hutt,-41.2166667,174.9166718,15
7059,New Zealand,Foxton,-40.4666667,175.3000031,15
7365,Norway,Sariwon,38.5072222,125.7558365,15
7442,Oman,Sur,22.5666667,59.5288887,15
7656,Panama,La Palma,8.4027778,-78.1452789,15
7680,Papua New Guinea,Kiunga,-6.1166667,141.3000031,15
7926,Philippines,Lucena,13.9313889,121.6172256,15
7929,Philippines,Binangonan,14.4655556,121.1919479,15
7962,Philippines,Santa Cruz,14.2786111,121.4155579,15
8008,Poland,Gdansk,54.35,18.666666,15
8140,Portugal,Santarem,39.2333333,-8.6833334,15
8346,Russia,Kaliningrad,54.71,20.5,15
8608,Senegal,Tiebo,14.6333333,-16.2333336,15
8632,Senegal,Kanel,15.4833333,-13.166667,15
9131,Sri Lanka,Kilinochchi,9.4,80.4000015,15
9310,Sweden,Vallentuna,59.5343615,18.0775852,15
9326,Sweden,Enkoping,59.636067,17.0776787,15
9893,Tunisia,Sahline,35.7533333,10.7116671,15
3878,Gambia,Nema Kunku,13.25,-15.8833332,16
3865,Gambia,Perai,13.3833333,-14.0333328,16
250,Algeria,Reghaia,36.7422222,3.3413889,16
347,United States,Newark,40.735657,-74.1723633,16
939,Bangladesh,Bhairab Bazar,24.0666667,90.9666672,16
975,Bangladesh,Abhaynagar,23.0166667,89.4666672,16
978,Bangladesh,Mirzapur,24.1,90.0999985,16
1139,Belgium,Vilvoorde,50.9333333,4.4333334,16
1823,Myanmar,Nyaungdon,17.0333333,95.6500015,16
1831,Cambodia,Phnom Penh,11.55,104.9166641,16
2749,Cuba,Manzanillo,20.3433333,-77.1166687,16
3059,Denmark,Taastrup,55.6517326,12.2921562,16
3061,Denmark,Rodovre,55.6806211,12.4537325,16
3270,Ecuador,Huaquillas,-3.4833333,-80.2333298,16
3406,Estonia,Rummu,59.5352778,24.7997227,16
3575,Finland,Vantaa,60.2966805,25.0138092,16
3599,Finland,Kirkkonummi,60.1166667,24.4333324,16
3677,France,Nantes,47.2172508,-1.5533638,16
4656,Iceland,Reykjavik,64.15,-21.9500008,16
4663,Iceland,Selfoss,63.9333333,-21,16
4746,India,Calcutta,22.5697222,88.3697205,16
4819,India,Jamnagar,22.4666667,70.0666656,16
4874,Indonesia,Palu,-0.9016667,119.859726,16
5073,Iraq,Al Hindiyah,32.5433333,44.2224998,16
5362,Italy,Brindisi,40.627731,17.9368153,16
5399,Italy,Carpi,44.78237,10.877697,16
5903,Latvia,Vangazi,57.0936111,24.5486107,16
6014,Libya,Surman,32.7563889,12.5749998,16
6944,Morocco,Mechra Belqsiri,34.56,-5.9499998,16
7099,New Zealand,Riverton,-46.35,168.0166626,16
7547,Pakistan,Shahdadpur,25.9333333,68.6166687,16
7567,Panama,Tocumen,9.0833333,-79.3833313,16
7601,Panama,Almirante,9.3,-82.4000015,16
7636,Panama,Chiriqui,8.4,-82.3166656,16
7919,Philippines,San Pedro,14.3647222,121.0555573,16
7921,Philippines,San Fernando,15.0302778,120.6855545,16
7931,Philippines,Imus,14.4297222,120.9366684,16
7994,Philippines,Pulilan,14.9016667,120.8491669,16
8130,Portugal,Portimao,37.1385614,-8.5377502,16
8198,Portugal,Ilhavo,40.6,-8.666667,16
8607,Senegal,Ziguinchor,12.5833333,-16.271944,16
10362,Vietnam,Bien Hoa,10.95,106.8166656,16
8959,Korea,Naju,35.0283333,126.7174988,17
8925,Korea,Osan,37.145,127.0694427,17
3874,Gambia,Jakaba,13.65,-14.8833332,17
89,Albania,Shkoder,42.0682829,19.5125771,17
632,Australia,South Brisbane,-27.4833333,153.0166626,17
920,Bangladesh,Mymensingh,24.75,90.4000015,17
940,Bangladesh,Shahzadpur,24.1666667,89.5999985,17
992,Bangladesh,Shibganj,24.6833333,88.1666641,17
1117,Belgium,Aalst,50.9333333,4.0333333,17
1803,Myanmar,Pyapon,16.2833333,95.6833344,17
1805,Myanmar,Kanbe,16.7052778,96.0016632,17
1835,Cambodia,Kampong Chhnang,12.25,104.6666641,17
1843,Cambodia,Sisophon,13.5833333,102.9833298,17
2295,China,Wenzhou,28.0191667,120.6544418,17
2666,Croatia,Rovinj,45.08,13.6400003,17
2674,Croatia,Porec,45.2258333,13.5938892,17
2770,Cuba,Nuevitas,21.5452778,-77.2644424,17
3072,Denmark,Stenlose,55.7682812,12.1972275,17
3084,Denmark,Frederikssund,55.8395636,12.0689592,17
3097,Denmark,Struer,56.4912161,8.5837555,17
3449,Estonia,Kallaste,58.655,27.1591663,17
3630,Finland,Mustasaari,63.1166667,21.7166672,17
4169,Greece,Katerini,40.2719444,22.5025005,17
4368,Haiti,Jeremie,18.65,-74.1166687,17
4386,Haiti,Anse a Galets,18.8316667,-72.8641663,17
4408,Haiti,Limonade,19.6697222,-72.1252747,17
4430,Haiti,Coteaux,18.2,-74.0333328,17
4668,Iceland,Husavik,66.05,-17.3500004,17
4841,India,Panihati,22.6941667,88.3744431,17
5055,Iraq,Ad Diwaniyah,31.9877778,44.9255562,17
5134,Ireland,Carraig Ui Leighin,51.8116667,-8.3986111,17
5326,Italy,Cagliari,39.2073839,9.1346169,17
5562,Japan,Ibaraki,34.8164106,135.5682831,17
5565,Japan,Fukui,36.0644338,136.2225647,17
5858,Kuwait,Al Fintas,29.1738889,48.1211128,17
5870,Latvia,Jelgava,56.65,23.7127781,17
5879,Latvia,Salaspils,56.8611111,24.3494453,17
6477,Maldives,Putatan,5.8833333,116.0500031,17
6885,Morocco,Casablanca,33.59,-7.6100001,17
7060,New Zealand,Dargaville,-35.9333333,173.8833313,17
7380,Norway,Sunan,39.1983333,125.6900024,17
7496,Pakistan,Tando Allahyar,25.4666667,68.7166672,17
7536,Pakistan,Kotri,25.3666667,68.3000031,17
7590,Panama,Sabanitas,9.3422222,-79.8011093,17
7595,Panama,Pocri,8.2666667,-80.5500031,17
7922,Philippines,Libertad,8.9441667,125.5019455,17
7928,Philippines,Olongapo,14.8291667,120.2827759,17
8150,Portugal,Vila do Conde,41.35,-8.75,17
8174,Portugal,Carcavelos,38.6833333,-9.333333,17
8623,Senegal,Pout,14.7738889,-17.0602779,17
8770,Somalia,Jilib,0.4958333,42.7727776,17
9048,Spain,Barakaldo,43.2956367,-2.9972935,17
9267,Sweden,Vasteras,59.6161738,16.5527592,17
9287,Sweden,Lulea,65.5841501,22.1546497,17
9307,Sweden,Nykoping,58.7530045,17.0078773,17
9327,Sweden,Kungsbacka,57.4871855,12.0761204,17
9771,Thailand,Ko Samui,9.5342254,99.9353714,17
10097,Ukraine,Kherson,46.6333333,32.5999985,17
10188,Uruguay,Rio Branco,-32.5666667,-53.4166679,17
10219,Uruguay,Vergara,-32.9333333,-53.9500008,17
8953,Korea,Miryang,35.4933333,128.7488861,18
3842,Gambia,Sutukung,13.4666667,-15.2666664,18
447,Argentina,Comodoro Rivadavia,-45.8666667,-67.5,18
474,Argentina,Puerto Madryn,-42.7666667,-65.0500031,18
957,Bangladesh,Kaptaimukh,22.4713889,92.2322235,18
966,Bangladesh,Chilmari,25.55,89.7166672,18
1207,Belgium,Edegem,51.15,4.4499998,18
1658,United Kingdom,Warrington,53.3833333,-2.5999999,18
1837,Cambodia,Pouthisat,12.5333333,103.9166641,18
1845,Cambodia,Kracheh,12.4833333,106.0166702,18
2264,China,Hangzhou,30.2552778,120.1688919,18
2272,China,Hefei,31.8638889,117.2808304,18
2376,Colombi,Magangue,9.2413889,-74.753334,18
2421,Colombi,Plato,9.7919444,-74.7872238,18
2815,Cuba,Nueva Gerona,21.8833333,-82.8000031,18
2885,Cyprus,Perivolia,34.8291667,33.5833321,18
3049,Denmark,Naestved,55.2299179,11.7609177,18
3057,Denmark,Holstebro,56.3600916,8.6160707,18
3190,Netherlands,Ede,52.033333,5.6583328,18
3238,Netherlands,Uden,51.660833,5.6194439,18
3249,Ecuador,Manta,-0.95,-80.7333298,18
3286,Ecuador,Samborondon,-1.95,-79.7333298,18
3382,Estonia,Sillamae,59.3997222,27.7547226,18
3632,Finland,Anjala,60.6833333,26.833334,18
3665,Finland,Pedersoren Kunta,63.65,22.6833324,18
4210,Greece,Pyrgos,37.6751253,21.441021,18
4239,Grenada,Gouyave,12.1666667,-61.7333336,18
4701,Iceland,Torshofn,66.2,-15.333333,18
4965,Iran,Khorramshahr,30.4391667,48.1791649,18
5118,Ireland,Inis,52.8436111,-8.9863892,18
5234,Israel,Qiryat Motzkin,32.8363889,35.0752792,18
5493,Japan,Yono,35.8833333,139.6333313,18
5519,Japan,Nagasaki,32.755,129.8683319,18
5523,Japan,Fujisawa,35.3419444,139.4700012,18
5917,Latvia,Ulbroka,56.9411111,24.2897224,18
5947,Latvia,Pavilosta,56.8833333,21.1833324,18
5993,Libya,Harat az Zawiyah,32.7630556,12.7150002,18
6487,Maldives,Kangar,6.4333333,100.1999969,18
6678,Mauritius,Mare La Chaux,-20.1980556,57.7494431,18
6821,Moldova,Slobozia,46.7280556,29.707777,18
7058,New Zealand,Kerikeri,-35.2166667,173.9666595,18
7436,Oman,As Suwayq,23.8494444,57.4386101,18
7965,Philippines,Laoag,18.1988889,120.5936127,18
8034,Poland,Gorzow Wielkopolski,52.7333333,15.2333336,18
8192,Portugal,Leca da Palmeira,41.2,-8.6999998,18
9020,Spain,Castello de la Plana,39.9833333,-0.0333333,18
9789,Thailand,Satun,6.6166667,100.0666656,18
9831,Tunisia,Midoun,33.8083333,10.9938889,18
10010,Turkey,Canakkale,40.1455556,26.4063892,18
10381,Vietnam,Thanh Hoa,19.8,105.7666702,18
10419,Vietnam,Vinh Yen,21.31,105.5966644,18
10422,Yemen,Al Hudaydah,14.7977778,42.9522209,18
8942,Korea,Sosan,36.7816667,126.4522247,19
8915,Korea,Masan,35.2080556,128.5724945,19
3859,Gambia,Diabugu Basilla,13.3333333,-13.9499998,19
429,Argentina,Quilmes,-34.7202778,-58.2694435,19
979,Bangladesh,Sakhipur,24.3,90.1833344,19
1127,Belgium,Roeselare,50.9465313,3.1226921,19
1144,Belgium,Ieper,50.85,2.8833332,19
1145,Belgium,Ninove,50.8333333,4.0166669,19
1146,Belgium,Geel,51.1666667,5,19
1160,Belgium,Geraardsbergen,50.7666667,3.8666668,19
1466,Brazil,Rio de Janeiro,-22.9027778,-43.2075005,19
1526,Brazil,Canoas,-29.9177778,-51.1836128,19
1797,Myanmar,Mudon,16.2577778,97.7163925,19
1983,Canada,Nanaimo,49.1663374,-123.9360123,19
2038,Canada,Port Alberni,49.2413251,-124.802803,19
2265,China,Nanchang,28.6833333,115.8833313,19
2304,China,Langfang,39.5097222,116.694725,19
2479,Comoros,Ongoni,-12.1702778,44.5069427,19
2513,Comoros,Hoani,-12.2508333,43.6747208,19
2644,Croatia,Pula,44.8683333,13.8480558,19
2835,Cuba,Alquizar,22.8058333,-82.5841675,19
2852,Cyprus,Livadhia,34.9541667,33.6291656,19
3048,Denmark,Silkeborg,56.1697004,9.5450811,19
3149,Netherlands,Eindhoven,51.440833,5.477778,19
3425,Estonia,Haabneeme,59.5113889,24.8211117,19
3468,Estonia,Karla,58.3358333,22.2597218,19
3581,Finland,Pori,61.4833333,21.7833328,19
3898,Georgia,Sokhumi,43.0033333,41.0152779,19
4178,Greece,Komotini,41.1227778,25.396389,19
4220,Greece,,38.3701939,21.4295197,19
4357,Haiti,Carrefour,18.5411401,-72.3992157,19
4657,Iceland,Kopavogur,64.1,-21.916666,19
4676,Iceland,Sandgerdi,64.05,-22.7000008,19
4838,India,Nellore,14.4333333,79.9666672,19
5066,Iraq,Al Harithah,30.7186111,47.7208328,19
5178,Ireland,An Pasaiste,51.8738889,-8.3444443,19
5314,Italy,Catania,37.502134,15.0871897,19
5373,Italy,Marsala,37.82124,12.4896307,19
5526,Japan,Toyohashi,34.7666667,137.3833313,19
5540,Japan,Kawagoe,35.9086111,139.4852753,19
5566,Japan,Mito,36.3666667,140.4666595,19
6844,Moldova,Criuleni,47.2144444,29.1613884,19
7038,New Zealand,Gisborne,-38.6533333,178.0041656,19
7645,Panama,Guarare,7.8166667,-80.2833328,19
7942,Philippines,Guyong,14.8386111,120.9797211,19
7979,Philippines,Angono,14.5255556,121.1497192,19
7991,Philippines,Gapan,15.3075,120.9452744,19
8360,Russia,Murmansk,68.9716667,33.0819435,19
8630,Senegal,Sokone,13.8833333,-16.3666668,19
9104,Sri Lanka,Kolonnawa,6.9316667,79.8944473,19
9741,Thailand,Ban Pong,13.8166667,99.8833313,19
9862,Tunisia,Dar Chabanne,36.4694444,10.751111,19
10152,Ukraine,Nova Kakhovka,46.7508333,33.3802795,19
10181,Uruguay,Delta del Tigre,-34.7633333,-56.3852768,19
10182,Uruguay,Carmelo,-33.9891667,-58.2855568,19
10196,Uruguay,Rosario,-34.3166667,-57.3499985,19
10333,Venezuela,Moron,10.4888889,-68.2002792,19
10403,Vietnam,Phu Khuong,11.2833333,106.1333313,19
8970,Korea,Chinyong,35.3041667,128.7316742,20
3885,Gambia,Buniadu,13.55,-15.333333,20
3832,Gambia,Jakhaly,13.55,-14.9666672,20
3839,Gambia,Denton,13.5,-14.9333334,20
3813,Gambia,Demba Kunda,13.25,-14.2666664,20
431,Argentina,Santa Fe,-31.6333333,-60.7000008,20
983,Bangladesh,Bera,24.0833333,89.6166687,20
1199,Belgium,Diest,50.9834243,5.050149,20
1544,Brazil,Caucaia,-3.7361111,-38.6530571,20
1591,United Kingdom,Newcastle upon Tyne,54.9732787,-1.6139603,20
1786,Myanmar,Thaton,16.9205556,97.3713913,20
1832,Cambodia,Kampong Saom,10.6333333,103.5,20
1990,Canada,Brossard,45.4500795,-73.4658356,20
2154,Chile,Puerto Montt,-41.4716667,-72.9369431,20
2267,China,Tangshan,39.6333333,118.1833344,20
2527,Comoros,Miringoni,-12.2966667,43.6352768,20
2639,Croatia,Split,43.5089078,16.4391518,20
3070,Denmark,Glostrup,55.6666667,12.3999996,20
3087,Denmark,Ronne,55.1,14.6999998,20
3089,Denmark,Skanderborg,56.0399128,9.9271994,20
3200,Netherlands,Emmen,52.779167,6.9069438,20
3278,Ecuador,El Triunfo,-1.9333333,-79.9666672,20
3328,Ecuador,Palestina,-1.9333333,-79.7333298,20
3371,Eritrea,Idi,13.9297222,41.6925011,20
3442,Estonia,Parnu-Jaagupi,58.6058333,24.5152779,20
3608,Finland,Salo,60.3833333,23.1333332,20
3741,France,La Seyne-sur-Mer,43.1,5.8833332,20
3761,France,Vannes,47.6666667,-2.75,20
4204,Greece,Argos,37.6333333,22.7333336,20
4444,Haiti,Baie de Henne,19.6627778,-73.2094421,20
4661,Iceland,Keflavik,64.0166667,-22.5666676,20
4664,Iceland,Njardvik,63.9666667,-22.5166664,20
4681,Iceland,Vogar,63.9666667,-22.3666668,20
4747,India,Chennai,13.0878385,80.2784729,20
4927,Indonesia,Singaraja,-8.1120006,115.0881805,20
5084,Iraq,Al Qasim,32.3077778,44.6788902,20
5226,Israel,Qiryat Ata,32.8005556,35.1063881,20
5309,Italy,Palermo,38.1158198,13.3597612,20
5341,Italy,Latina,41.466142,12.9043007,20
5409,Jamaica,Old Harbour,17.9333333,-77.1166687,20
5509,Japan,Matsudo,35.7833333,139.8999939,20
5538,Japan,Kashiwa,35.8544444,139.9688873,20
5542,Japan,Takamatsu,34.3333333,134.0500031,20
5571,Japan,Hachinohe,40.5,141.5,20
6375,Malawi,Mananjary,-21.2166667,48.3333321,20
6849,Moldova,Vadul lui Voda,47.0916667,29.0755558,20
7110,New Zealand,Leeston,-43.7666667,172.3000031,20
7372,Norway,Ongjin,37.9347222,125.3619461,20
7476,Pakistan,Nawabshah,26.25,68.4166641,20
7560,Palau,Imeong,7.5275,134.5255585,20
7575,Panama,Chitre,7.9666667,-80.4333344,20
8435,El Salvador,Puerto El Triunfo,13.2833333,-88.5500031,20
9071,Spain,Orihuela,38.0833333,-0.95,20
9137,Sri Lanka,Minuwangoda,7.1733333,79.9619446,20
9262,Sweden,Stockholm,59.3325765,18.0649033,20
9747,Thailand,Tha Maka,13.9,99.7666702,20
9919,Tunisia,El Maamoura,36.4672222,10.8058329,20
10187,Uruguay,Paso de Carrasco,-34.8602778,-56.0522232,20
10215,Uruguay,Atlantida,-34.7666667,-55.75,20
10236,Uruguay,Nuevo Berlin,-32.9833333,-58.0499992,20
10374,Vietnam,Cam Ranh,11.9214391,109.1591263,20
10388,Vietnam,Viet Tri,21.3019444,105.4308319,20
8923,Korea,Kuri,37.5947222,127.1427765,21
8914,Korea,Kimhae,35.2341667,128.8811035,21
3887,Gambia,Medina Kanuma,13.4927778,-16.5233326,21
3820,Gambia,Sutukoba,13.5,-14.0166664,21
438,Argentina,Bahia Blanca,-38.7166667,-62.2833328,21
481,Argentina,Colegiales,-34.5833333,-58.4500008,21
498,Argentina,Villa Santa Rita,-34.6147735,-58.4797096,21
933,Bangladesh,Nawabganj,24.6,88.2833328,21
1565,United Kingdom,London,51.5084153,-0.1255327,21
1705,Bulgaria,Lom,43.8138889,23.2361107,21
1782,Myanmar,Prome,18.8166667,95.2166672,21
1802,Myanmar,Bogale,16.2833333,95.4000015,21
1808,Myanmar,Tharyarwady,17.65,95.8000031,21
1836,Cambodia,Kampong Cham,12,105.4499969,21
1934,Cameroon,Yabassi,4.4544444,9.9655552,21
2410,Colombi,El Banco,9.0047222,-73.9780579,21
3217,Netherlands,Roermond,51.194167,5.9875002,21
3469,Estonia,Klooga,59.3197222,24.2113895,21
3713,France,Avignon,43.95,4.8166666,21
4423,Haiti,Cotes-de-Fer,18.1833333,-73,21
4439,Haiti,Anse-a-Pitres,18.05,-71.75,21
4815,India,Ulhasnagar,19.2166667,73.1500015,21
4898,Indonesia,Pemalang,-6.9,109.3666687,21
5296,Israel,Elyakhin,32.4,34.9166679,21
5452,Jamaica,Race Course,17.8333333,-77.2833328,21
5823,Kenya,Witu,-2.3905556,40.4530563,21
6344,Malawi,Toliara,-23.35,43.6666679,21
6521,Maldives,Kampong Masjid Tanah,2.35,102.1166687,21
6643,Mauritius,Quatre Cocos,-20.2077778,57.7625008,21
7086,New Zealand,Milton,-46.1208333,169.9694519,21
7235,Niger,Warri,5.5166667,5.75,21
7391,Norway,Hukkyo-ri,38.7986111,125.7919464,21
7400,Norway,Anak,38.5108333,125.4941635,21
7433,Oman,Salalah,17.0175,54.0827789,21
7573,Panama,Pacora,9.0833333,-79.2833328,21
7602,Panama,Sona,8.0166667,-81.3166656,21
7967,Philippines,Jolo,6.0522222,121.0022202,21
7969,Philippines,General Trias,14.3869444,120.8816681,21
8043,Poland,Slupsk,54.45,17.0333328,21
8058,Poland,Stargard Szczecinski,53.3333333,15.0500002,21
8190,Portugal,Ovar,40.8666667,-8.6333332,21
8202,Qatar,Doha,25.2866667,51.5333328,21
8204,Qatar,Umm Salal Muhammad,25.4169444,51.4038887,21
8627,Senegal,Koungheul,13.9833333,-14.8000002,21
8638,Senegal,Tionk Essil,12.7855556,-16.5216675,21
8758,Somalia,Berbera,10.4355556,45.0163879,21
9303,Sweden,Majorna,57.6919468,11.9160461,21
9733,Thailand,Kanchanaburi,14.004116,99.5483246,21
9859,Tunisia,Qasr Hallal,35.65,10.8999996,21
10144,Ukraine,Energodar,47.5,34.4666672,21
10163,Uruguay,Maldonado,-34.9,-54.9500008,21
8963,Korea,Hongsong,36.5994444,126.6627808,22
3803,Gambia,Sukuta,13.4113889,-16.708889,22
3835,Gambia,Toniataba,13.4333333,-15.583333,22
3845,Gambia,Bureng,13.4166667,-15.2833328,22
3817,Gambia,Sami,13.5833333,-15.1999998,22
3867,Gambia,Banto Nding,13.4666667,-14.083333,22
446,Argentina,Concordia,-31.4,-58.0333328,22
464,Argentina,Lujan,-34.5702778,-59.1049995,22
1613,United Kingdom,Brighton,50.8283849,-0.1394749,22
1631,United Kingdom,Saint Helens,53.45,-2.7333333,22
1861,Cameroon,Edea,3.8,10.1333332,22
2746,Cuba,Cienfuegos,22.1461111,-80.4355545,22
2780,Cuba,Yaguajay,22.3272222,-79.2377777,22
2810,Cuba,Aguada de Pasajeros,22.385,-80.8508301,22
2833,Cuba,Venezuela,21.7352778,-78.7963867,22
3125,Denmark,Aars,56.8039858,9.5144072,22
3172,Netherlands,Venlo,51.37,6.168056,22
3375,Estonia,Tallinn,59.4369583,24.7535267,22
3576,Finland,Turku,60.45,22.2833328,22
3616,Finland,Kaarina,60.4166667,22.416666,22
3904,Georgia,Stantsiya Novyy Afon,43.0805556,40.8383331,22
4165,Greece,Rodos,36.4408333,28.2224998,22
4658,Iceland,Hafnarfjordur,64.0666667,-21.9500008,22
4851,Indonesia,Semarang,-6.9666667,110.4166641,22
4918,Indonesia,Gorontalo,0.5344444,123.0616684,22
5266,Israel,Azor,32.0191667,34.8105545,22
5498,Japan,Shizuoka,34.9666667,138.3833313,22
5508,Japan,Himeji,34.8166667,134.6999969,22
5533,Japan,Takatsuki,34.8483254,135.6167755,22
5950,Latvia,Rundale,56.4266667,23.9852772,22
6837,Moldova,Grigoriopol,47.1536111,29.2963886,22
7067,New Zealand,Paeroa,-37.3666667,175.6666718,22
7578,Panama,Cativa,9.3605556,-79.8436127,22
8102,Poland,Rumia,54.5833333,18.3999996,22
8777,Somalia,Eyl,7.9833333,49.8166656,22
9101,Sri Lanka,Kotikawatta,6.9333333,79.9166641,22
9231,Suriname,Moengo,5.6166667,-54.4000015,22
9282,Sweden,Eskilstuna,59.366608,16.5076981,22
9299,Sweden,Lidingo,59.3666667,18.1333332,22
9338,Sweden,Koping,59.5140379,15.9925528,22
10415,Vietnam,Phu Ly,20.5411111,105.913887,22
8962,Korea,Yesan,36.6791667,126.8450012,23
3850,Gambia,Sara Kunda,13.5333333,-15.416667,23
3854,Gambia,Bambali,13.4833333,-15.333333,23
3858,Gambia,Bantanto,13.4166667,-14.6499996,23
3804,Gambia,Basse Santa Su,13.3166667,-14.2166672,23
374,United States,Chula Vista,32.6400541,-117.084198,23
471,Argentina,Goya,-29.1333333,-59.2666664,23
693,Australia,Kingston,-42.9666667,147.3166656,23
1007,Bangladesh,Muktagacha,24.7666667,90.2333298,23
1133,Belgium,Turnhout,51.3166667,4.9499998,23
1152,Belgium,Mol,51.1833333,5.0999999,23
1180,Belgium,Brecht,51.35,4.6333332,23
1540,Brazil,Paulista,-7.9408333,-34.8730545,23
2260,China,Dalian,38.9122222,121.6022186,23
2493,Comoros,Salimani,-11.8080556,43.2591667,23
2796,Cuba,Yara,20.2752778,-76.953331,23
2828,Cuba,Primero de Enero,21.9469444,-78.4283371,23
3572,Finland,Helsinki,60.1755556,24.934166,23
4866,Indonesia,Jambi,-1.6,103.6166687,23
4892,Indonesia,Rengasdengklok,-6.1483333,107.2830582,23
5056,Iraq,Al Kut,32.4975,45.8291664,23
5063,Iraq,Az Zubayr,30.3891667,47.7080574,23
5089,Iraq,Ghammas,31.7352778,44.6074982,23
5090,Iraq,Saddat al Hindiyah,32.7147222,44.2802773,23
5101,Iraq,`Afak,32.0625,45.2427788,23
5213,Israel,Holon,32.0113889,34.7722206,23
5236,Israel,Qiryat Bialik,32.8275,35.0858345,23
5392,Italy,Carrara,44.062945,10.0606909,23
5500,Japan,Kumamoto,32.8,130.7166595,23
5544,Japan,Akita,39.7166667,140.1166687,23
5560,Japan,Kakogawa,34.7666667,134.8500061,23
5904,Latvia,Iecava,56.5986111,24.2022228,23
5992,Libya,Al Khums,32.65,14.2666664,23
7065,New Zealand,Whangamata,-37.2,175.8666687,23
7500,Pakistan,Tando Adam,25.7666667,68.6666641,23
7966,Philippines,Urdaneta,15.9761111,120.5711136,23
7998,Philippines,Balanga,14.6761111,120.5361099,23
8113,Portugal,Loures,38.8309147,-9.1684504,23
8203,Qatar,Ar Rayyan,25.2919444,51.4244461,23
8358,Russia,Volzhskiy,48.7905556,44.7716675,23
8392,Russia,Balakovo,52.0246617,47.7941055,23
8545,Samoa,Saleilua,-14.0166667,-171.6999969,23
8625,Senegal,Guinguineo,14.2666667,-15.9499998,23
9115,Sri Lanka,Mulleriyawa,6.9333333,79.9333344,23
9792,Thailand,Prachin Buri,14.0502778,101.3702774,23
10198,Uruguay,Piriapolis,-34.8681866,-55.2743645,23
10385,Vietnam,Hoa Binh,20.8133333,105.3383331,23
10407,Vietnam,Son Tay,21.1377778,105.5049973,23
8977,Korea,Haenam,34.5711111,126.5988922,24
8934,Korea,Wabu,37.5897222,127.2202759,24
3836,Gambia,Karantaba,13.4333333,-15.5166664,24
124,Albania,Roskovec,40.7375,19.7022228,24
293,United States,San Jose,37.3393857,-121.8949585,24
667,Australia,Kwinana,-32.25,115.7666702,24
810,Azerbaijan,Sumqayit,40.5897222,49.6686096,24
828,Azerbaijan,Agcabadi,40.0527778,47.4613876,24
972,Bangladesh,Kaliganj,23.4166667,89.1333313,24
1135,Belgium,Heist-op-den-Berg,51.0833333,4.7166667,24
1159,Belgium,Wevelgem,50.8,3.1666667,24
1633,United Kingdom,Gillingham,51.3891373,0.5486298,24
1815,Myanmar,Kyaikkami,16.08,97.5674973,24
2144,Chile,Valparaiso,-33.0393202,-71.6272583,24
2313,China,Liaoyang,41.2719444,123.1730576,24
2692,Croatia,Vodice,43.7608333,15.7827778,24
2839,Cyprus,Larnaca,34.9166667,33.6291656,24
3102,Denmark,Kongens Lyngby,55.7704419,12.5037823,24
3266,Ecuador,Santa Elena,-2.2333333,-80.8499985,24
4800,India,Bhiwandi,19.3,73.0666656,24
4849,Indonesia,Tangerang,-6.1780556,106.6299973,24
5109,Ireland,Limerick,52.6647222,-8.6230555,24
5214,Israel,Bene Beraq,32.0902778,34.8397217,24
5404,Jamaica,Spanish Town,17.9833333,-76.9499969,24
7044,New Zealand,Levin,-40.6333333,175.2749939,24
7115,New Zealand,Te Kauwhata,-37.4,175.1499939,24
7493,Pakistan,Dadu,26.7333333,67.7833328,24
7580,Panama,Changuinola,9.4333333,-82.5166702,24
7941,Philippines,Toledo,10.3791667,123.6419449,24
7947,Philippines,Baliuag,14.9547222,120.8969421,24
8118,Portugal,Amora,38.6166667,-9.1166668,24
8157,Portugal,Torres Vedras,39.1,-9.2666664,24
8161,Portugal,Estoril,38.7057069,-9.3977308,24
8183,Portugal,Barcelos,41.5333333,-8.6166668,24
8210,Qatar,Al Ghuwayriyah,25.8297222,51.2452774,24
8606,Senegal,Saint-Louis,16.017931,-16.4896202,24
8622,Senegal,Nguekokh,14.5127778,-17.0049992,24
8635,Senegal,Gandiaye,14.2333333,-16.2666664,24
9040,Spain,Ciutat Vella,41.380222,2.1731901,24
9266,Sweden,Kista,59.4031612,17.9447937,24
9275,Sweden,Umea,63.8284245,20.2597218,24
9317,Sweden,Marsta,59.6166667,17.8500004,24
9858,Tunisia,Jammal,35.6333333,10.7666664,24
3840,Gambia,Dankunku,13.5666667,-15.3166666,25
3827,Gambia,Saruja,13.55,-14.916667,25
822,Azerbaijan,Xacmaz,41.4708333,48.8097229,25
1975,Canada,Trois-Rivieres,46.3500609,-72.549118,25
2244,China,Wuhan,30.5833333,114.2666702,25
2358,Colombi,Monteria,8.7575,-75.8899994,25
2599,Costa Rica,Quepos,9.45,-84.1500015,25
2787,Cuba,Condado,21.8766667,-79.8402786,25
2811,Cuba,Calimete,22.5333333,-80.9061127,25
2822,Cuba,Rodas,22.3408333,-80.5572205,25
3098,Denmark,Flong,55.6666667,12.1833334,25
3106,Denmark,Jyllinge,55.75,12.1166668,25
3113,Denmark,Smorumnedre,55.7333333,12.3000002,25
3116,Denmark,Trorod,55.8333333,12.5500002,25
3127,Denmark,Nordborg,55.05,9.75,25
3129,Denmark,Helsinge,56.0228342,12.1975174,25
3130,Denmark,Lemvig,56.5485608,8.3101912,25
3225,Netherlands,Venray,51.525,5.9749999,25
3235,Netherlands,Wageningen,51.97,5.666667,25
3679,France,Montpellier,43.6,3.8833332,25
3681,France,Lille,50.6333333,3.0666666,25
3694,France,Amiens,49.9,2.3,25
3733,France,Merignac,44.8333333,-0.6333333,25
3758,France,Niort,46.3166667,-0.4666667,25
4377,Haiti,Trou du Nord,19.6333333,-72.0166702,25
4810,India,Bhavnagar,21.7666667,72.1500015,25
5081,Iraq,As Suwayrah,32.9255556,44.7758331,25
5241,Israel,Or Yehuda,32.0311111,34.8458328,25
5276,Israel,Kafr Yasif,32.9536111,35.1652794,25
5324,Italy,Modena,44.647834,10.9253883,25
5340,Italy,Forli,44.2236111,12.0527782,25
5855,Kuwait,Al Manqaf,29.0961111,48.1327782,25
5856,Kuwait,Ar Rabiyah,29.295,47.9330559,25
6260,Macedonia,Gevgelija,41.1391667,22.5025005,25
6517,Maldives,Bakri,2.05,102.6666641,25
6522,Maldives,Tanah Merah,5.8,102.1500015,25
6903,Morocco,Ksar el Kebir,35,-5.9000001,25
7378,Norway,Sungho 1-tong,38.9913889,125.9777756,25
7379,Norway,Changyon,38.2508333,125.0961075,25
7381,Norway,Hwangju-up,38.6702778,125.7761078,25
7615,Panama,Bejuco,8.6,-79.8833313,25
7810,Peru,Piura,-5.2,-80.6333313,25
8277,Romania,Fetesti,44.3833333,27.833334,25
8399,Saint Kitts and Nevis,Georgetown,13.2666667,-61.1166649,25
8636,Senegal,Ouaounde,15.2666667,-12.8666668,25
8641,Senegal,Passi,13.9833333,-16.2666664,25
8666,Slovenia,Izola,45.5369444,13.6619444,25
9301,Sweden,Uddevalla,58.3478392,11.9423962,25
9336,Sweden,Harnosand,62.6322752,17.9379387,25
9339,Sweden,Oskarshamn,57.2645529,16.4483681,25
9830,Tunisia,Sousse,35.8255556,10.6411114,25
9993,Turkey,Ceyhan,37.0247222,35.8175011,25
3838,Gambia,Katchang,13.5,-15.75,26
3801,Gambia,Farafenni,13.5666667,-15.6000004,26
3834,Gambia,Kumbija,13.2666667,-14.1833334,26
290,United States,San Diego,32.7153292,-117.1572571,26
616,Australia,Wollongong,-34.4333333,150.8833313,26
935,Bangladesh,Kushtia,23.9166667,89.1166687,26
1502,Brazil,Belford Roxo,-22.7641667,-43.3994446,26
1592,United Kingdom,Preston,53.7666667,-2.7166667,26
1827,Myanmar,Paungde,18.4833333,95.5,26
2002,Canada,Saint-Hyacinthe,45.6167758,-72.9491348,26
2462,Comoros,Ntsaoueni,-11.4658333,43.2627792,26
2465,Comoros,Itsandra,-11.6711111,43.2547226,26
2791,Cuba,Remedios,22.4947222,-79.5458298,26
3432,Estonia,Mustvee,58.8486111,26.9397221,26
4065,Germany,Flensburg,54.7833333,9.4333334,26
4521,Honduras,Omoa,15.7666667,-88.0333328,26
4929,Indonesia,Martapura,-3.4166667,114.8499985,26
5057,Iraq,Al Hillah,32.4794444,44.4327774,26
5217,Israel,Ashqelon,31.6666667,34.5833321,26
5481,Jamaica,Frome,18.3,-78.1500015,26
5487,Japan,Sapporo,43.0547222,141.3538818,26
5492,Japan,Hiroshima,34.4,132.4499969,26
6489,Maldives,Jitra,6.2666667,100.4166641,26
7018,New Zealand,Auckland,-36.8666667,174.7666626,26
7146,Nicaragua,Rama,12.15,-84.2166672,26
7384,Norway,Nanam,41.7136111,129.6844482,26
7589,Panama,Anton,8.4,-80.2666702,26
8117,Portugal,Aveiro,40.6333333,-8.6499996,26
8119,Portugal,Corroios,38.6333333,-9.1499996,26
8158,Portugal,Oliveira do Douro,41.1166667,-8.583333,26
8601,Samoa,Avao,-13.45,-172.3666687,26
9286,Sweden,Sundsvall,62.3912893,17.3062992,26
9337,Sweden,Norrtalje,59.7579892,18.7049637,26
9843,Tunisia,Saqanis,35.7833333,10.8000002,26
9866,Tunisia,La Sebala du Mornag,36.6816667,10.2888889,26
10359,Vietnam,Ha Noi,21.0333333,105.8499985,26
8943,Korea,Kongju,36.4555556,127.1247253,27
8958,Korea,Kijang,35.2441667,129.2138824,27
3810,Gambia,Abuko,13.4041667,-16.6558342,27
3802,Gambia,Lamin,13.3522222,-16.4338894,27
3896,Gambia,Tuba Koto,13.6333333,-14.8999996,27
456,Argentina,Zarate,-34.0922222,-59.0349998,27
